id,retailer,fascia,store_name,add_one,add_two,town,suburb,postcode,long_wgs,lat_wgs,bng_e,bng_n,pqi,open_date,size_band,geom_p_27700
1010003823,Sainsburys,Sainsburys Local,Sainsburys Maidenhead Wootton Way Local,43-45 Wootton Way,,Maidenhead,Boyn Hill,SL6 4QZ,-0.743483847522875,51.5165520828198,487284.26,180484.76,Rooftop geocoded by Geolytix,,"3,013 < 15,069 ft2 (280 < 1,400 m2)","SRID=27700;POINT(487284.26 180484.76)"
1010013467,Marks and Spencer,Marks and Spencer Simply Food,M&S Braintree Simply Food,Unit 7 Braintree Retail Park,,Braintree,Cressing Road,CM77 8YJ,0.57418696964602,51.8684802784509,577324.6342,222010.1088,Rooftop geocoded by Geolytix,,"3,013 < 15,069 ft2 (280 < 1,400 m2)","SRID=27700;POINT(577324.6342 222010.1088)"
1010002180,Morrisons,Morrisons,Morrisons Breightmet Bolton,Bury Road,,Bolton,Breightmet,BL2 6QT,-2.38448421236904,53.5810002175872,374641.6114,409447.4647,Rooftop geocoded by Geolytix,,"3,013 < 15,069 ft2 (280 < 1,400 m2)","SRID=27700;POINT(374641.6114 409447.4647)"
1010014570,The Co-operative Group,The Co-operative Food,Co-op Fort Road - Newhaven,Fort Road,,Newhaven,Newhaven,BN9 9EL,0.0513199723302273,50.7871699946128,544692.2136,100627.4971,Rooftop geocoded by Geolytix,,"< 3,013 ft2 (280m2)","SRID=27700;POINT(544692.2136 100627.4971)"
1010014085,Aldi,Aldi,Aldi Breightmet Bolton,Fold Lane,,Bolton,Breightmet,BL2 6PP,-2.38318209097872,53.5813639790571,374728.0396,409487.47,Rooftop geocoded by Geolytix,,"3,013 < 15,069 ft2 (280 < 1,400 m2)","SRID=27700;POINT(374728.0396 409487.47)"
1010014257,Iceland,The Food Warehouse,Iceland Bolton Food Warehouse,Breightmet Retail Park,,Bolton,Breightmet,BL2 6QR,-2.38333877092804,53.5809781007681,374717.435,409444.5949,Rooftop geocoded by Geolytix,,"3,013 < 15,069 ft2 (280 < 1,400 m2)","SRID=27700;POINT(374717.435 409444.5949)"
1010013173,Heron,Heron,Heron Filey,16 Station Avenue,,Filey,,YO14 9AQ,-0.293520336599781,54.2103137473895,511390.23,480741.36,Rooftop geocoded by Geolytix,,"3,013 < 15,069 ft2 (280 < 1,400 m2)","SRID=27700;POINT(511390.23 480741.36)"
1010010674,Lidl,Lidl,Lidl Barnham Thetford,Burrell Way,,Thetford,London Road,IP24 3RS,0.725171395852467,52.4044825729232,585478.3,281990.66,Rooftop geocoded by Geolytix,,"3,013 < 15,069 ft2 (280 < 1,400 m2)","SRID=27700;POINT(585478.3 281990.66)"
1010006901,Lidl,Lidl,Lidl Longfield Trowbridge,Canal Road,,Trowbridge,Longfield,BA14 8QU,-2.20537653871805,51.3298830023742,385787.39,158996.31,Rooftop geocoded by Geolytix,,"3,013 < 15,069 ft2 (280 < 1,400 m2)","SRID=27700;POINT(385787.39 158996.31)"
1010011544,Channel Islands Co-operative Society,The Co-operative Food,Co-op Grand Marche St Helier,La Rue le Masurier,St Helier,Jersey,,JE2 4YE,-2.09890839713712,49.1886250801824,392888.45,-79111.45,Rooftop geocoded by Geolytix,,"< 3,013 ft2 (280m2)","SRID=27700;POINT(392888.45 -79111.45)"
1010014927,Marks and Spencer,Marks and Spencer,M&S Wanstead Convenience,157 High Street,,London,Wanstead,E11 2RL,0.0281240872438907,51.5760448166422,540637.3796,188301.8373,Rooftop geocoded by Geolytix,20180823,"15,069 < 30,138 ft2 (1,400 < 2,800 m2)","SRID=27700;POINT(540637.3796 188301.8373)"
1010014866,Aldi,Aldi,Aldi Wetherby,Sandbeck Lane,,Wetherby,Wetherby,LS22 7TW,-1.38463994195986,53.9375454840561,440495.5068,449222.8335,Rooftop geocoded by Geolytix,20170713,"3,013 < 15,069 ft2 (280 < 1,400 m2)","SRID=27700;POINT(440495.5068 449222.8335)"
1010009919,The Co-operative Group,The Co-operative Food,Co-op Prestonpans - Links Shopping Centre,The Links Shopping Centre,,Prestonpans,,EH32 9AF,-2.98093874240624,55.9608830349224,338856.9743,674641.984,Rooftop geocoded by Geolytix,,"3,013 < 15,069 ft2 (280 < 1,400 m2)","SRID=27700;POINT(338856.9743 674641.984)"
1010000469,Aldi,Aldi,Aldi Fenton Stoke-on-Trent,Victoria Road,,Stoke-on-Trent,Fenton,ST4 2HX,-2.16678866042204,53.0081733581161,388905.78,345664.37,Rooftop geocoded by Geolytix,,"3,013 < 15,069 ft2 (280 < 1,400 m2)","SRID=27700;POINT(388905.78 345664.37)"
1010006072,Tesco,Tesco Express Esso,Tesco Buxton Esso Express,127 London Road,,Buxton,Harpur Hill,SK17 9NW,-1.91046239820461,53.2505172149278,406071.58,372615.18,Rooftop geocoded by Geolytix,,"< 3,013 ft2 (280m2)","SRID=27700;POINT(406071.58 372615.18)"
1010013130,Farmfoods,Farmfoods,Farmfoods Carmarthen,Stephens Way,,Carmarthen,Llangynnwr,SA31 2NG,-4.31117319606904,51.8483285666334,240903.33,219162.89,Rooftop geocoded by Geolytix,,"3,013 < 15,069 ft2 (280 < 1,400 m2)","SRID=27700;POINT(240903.33 219162.89)"
1010001558,Marks and Spencer,Marks and Spencer,M&S Haverfordwest,Unit 1 Withybush Retail Park,Fishguard Road,Haverfordwest,,SA61 2PY,-4.96519937262499,51.8116818361898,195696.57,216720.42,Rooftop geocoded by Geolytix,,"3,013 < 15,069 ft2 (280 < 1,400 m2)","SRID=27700;POINT(195696.57 216720.42)"
1010007056,Lidl,Lidl,Lidl Netherton Dudley,301 Halesowen Road,,Dudley,Netherton,DY2 9NP,-2.07181880319931,52.4831542024903,395219.74,287250.5,Rooftop geocoded by Geolytix,,"3,013 < 15,069 ft2 (280 < 1,400 m2)","SRID=27700;POINT(395219.74 287250.5)"
1010013518,Marks and Spencer,Marks and Spencer Simply Food,M&S Bognor Regis Simply Food,Arun Retail Park,Shripney Road,Bognor Regis,North Bersted,PO22 9NF,-0.666966080873861,50.7985799153636,494040.26,100737.54,Rooftop geocoded by Geolytix,20151007,"3,013 < 15,069 ft2 (280 < 1,400 m2)","SRID=27700;POINT(494040.26 100737.54)"
1010010995,Iceland,Iceland,Iceland Lisburn,71-73 Bow Street,,Lisburn,Central Lisburn,BT28 1BJ,-6.04743200172146,54.5106182064808,138111.18,520352.88,Rooftop geocoded by Geolytix,,"3,013 < 15,069 ft2 (280 < 1,400 m2)","SRID=27700;POINT(138111.18 520352.88)"
1010007508,Aldi,Aldi,Aldi Basford Nottingham,Lortas Road,,Nottingham,Basford,NG5 1EL,-1.16954988111523,52.978772394815,455857.49,342703.05,Rooftop geocoded by Geolytix,,"3,013 < 15,069 ft2 (280 < 1,400 m2)","SRID=27700;POINT(455857.49 342703.05)"
1010013190,Heron,Heron,Heron Hedon,36-38 St Augustines Gate,,Hedon,,HU12 8EX,-0.198588739257863,53.7402087228992,518910.87,428597.61,Rooftop geocoded by Geolytix,,"3,013 < 15,069 ft2 (280 < 1,400 m2)","SRID=27700;POINT(518910.87 428597.61)"
1010001914,Marks and Spencer,Marks and Spencer Simply Food,M&S Crescent Link SF,Crescent Link Retail Park,,Derry,Lisnagelvin,BT47 6SA,-7.27452775080999,54.9981399342982,62831.88,579795,Rooftop geocoded by Geolytix,,"3,013 < 15,069 ft2 (280 < 1,400 m2)","SRID=27700;POINT(62831.88 579795)"
1010014384,Heron,Heron,Heron Boney Hay Burntwood,Unit 1a Cannock Road,,Burntwood,Boney Hay,WS7 1JR,-1.93532326123152,52.6821158323606,404469.5291,309381.9326,Rooftop geocoded by Geolytix,,"3,013 < 15,069 ft2 (280 < 1,400 m2)","SRID=27700;POINT(404469.5291 309381.9326)"
1010004010,Tesco,Tesco,Tesco Aberdeen South Superstore,Wellington Road,,Aberdeen,Torry,AB12 3DN,-2.0941563487549,57.1303303921663,394399,804383,Rooftop geocoded by Geolytix,,"3,013 < 15,069 ft2 (280 < 1,400 m2)","SRID=27700;POINT(394399 804383)"
1010007399,Lidl,Lidl,Lidl Pitsea Basildon,Old Market Retail Park,High Road,Basildon,Pitsea,SS13 3AB,0.507450965087246,51.5645487527647,573892.27,188053.79,Rooftop geocoded by Geolytix,,"3,013 < 15,069 ft2 (280 < 1,400 m2)","SRID=27700;POINT(573892.27 188053.79)"
1010013134,Farmfoods,Farmfoods,Farmfoods Pitsea Basildon,Unit C Pitsea Retail Centre,The Broadway,Basildon,Pitsea,SS13 3BY,0.50596297693547,51.5638482257063,573791.82,187972.36,Rooftop geocoded by Geolytix,,"3,013 < 15,069 ft2 (280 < 1,400 m2)","SRID=27700;POINT(573791.82 187972.36)"
1010007885,The Co-operative Group,The Co-operative Food,Co-op Holyhead,45/49 Market Street,Holyhead,Holyhead,,LL65 1UL,-4.63300456532426,53.3100872996217,224676.4878,382472.403,Rooftop geocoded by Geolytix,,"3,013 < 15,069 ft2 (280 < 1,400 m2)","SRID=27700;POINT(224676.4878 382472.403)"
1010007355,Lidl,Lidl,Lidl Penllergaer Gorseinon,Gorseinon Road,,Gorseinon,Penllergaer,SA4 9GE,-4.01677387142167,51.6675222702985,260623.25,198453.68,Rooftop geocoded by Geolytix,,"3,013 < 15,069 ft2 (280 < 1,400 m2)","SRID=27700;POINT(260623.25 198453.68)"
1010014566,The Co-operative Group,The Co-operative Food,Co-op Twickenham - Richmond Road,71 Richmond Road,,London,Twickenham,TW1 3AW,-0.323028514448139,51.4495867961609,516627.8981,173622.462,Rooftop geocoded by Geolytix,,"< 3,013 ft2 (280m2)","SRID=27700;POINT(516627.8981 173622.462)"
1010008611,The Co-operative Group,The Co-operative Food,Co-op Andover - London Road,38-39 London Road,,Andover,Andover,SP10 2PP,-1.45995938650285,51.2099233444879,437820.6793,145773.6957,Rooftop geocoded by Geolytix,,"< 3,013 ft2 (280m2)","SRID=27700;POINT(437820.6793 145773.6957)"
1010000234,Aldi,Aldi,Aldi Halewood Liverpool,Ravenscourt Centre,Leathers Lane,Liverpool,Halewood,L26 0TX,-2.82990699140641,53.3607440473213,344866.27,385195.46,Rooftop geocoded by Geolytix,,"3,013 < 15,069 ft2 (280 < 1,400 m2)","SRID=27700;POINT(344866.27 385195.46)"
1010011487,Iceland,Iceland,Iceland Halewood,Unit 5 Halewood Shopping Centre,Leathers Lane,Liverpool,Halewood,L26 0AD,-2.82968073847152,53.3605220671572,344881.04,385170.59,Rooftop geocoded by Geolytix,,"3,013 < 15,069 ft2 (280 < 1,400 m2)","SRID=27700;POINT(344881.04 385170.59)"
1010013491,Marks and Spencer,Marks and Spencer Simply Food,M&S Grantham Simply Food,Unit 1 London Road,,Grantham,Central Grantham,NG31 6EN,-0.638115157753179,52.9051558794422,491694.32,335059.26,Rooftop geocoded by Geolytix,20141126,"3,013 < 15,069 ft2 (280 < 1,400 m2)","SRID=27700;POINT(491694.32 335059.26)"
1010012681,Iceland,Iceland,Iceland Tunstall,Unit 9 Alexandria Retail Park,,Stoke-on-Trent,Tunstall,ST6 6BE,-2.20605255946963,53.0581679654798,386287.19,351232.9,Rooftop geocoded by Geolytix,,"3,013 < 15,069 ft2 (280 < 1,400 m2)","SRID=27700;POINT(386287.19 351232.9)"
1010003251,Sainsburys,Sainsburys,Sainsburys Andover North,Shepards Spring Lane,,Andover,Andover,SP10 1DL,-1.47676684628568,51.2144893996762,436643,146273,Rooftop geocoded by Geolytix,,"15,069 < 30,138 ft2 (1,400 < 2,800 m2)","SRID=27700;POINT(436643 146273)"
1010004391,Tesco,Tesco,Tesco Hanley Extra,Clough Street,Hanley,Stoke-on-Trent,Hanley,ST1 4LS,-2.18085285781763,53.0232745940204,387966.32,347346.6,Rooftop geocoded by Geolytix,,"30,138 ft2 > (2,800 m2)","SRID=27700;POINT(387966.32 347346.6)"
1010000808,Asda,Asda Superstore,Asda Andover Superstore,Anton Mill Road,,Andover,Andover,SP10 2RW,-1.48230367120695,51.203758150258,436264.67,145076.84,Rooftop geocoded by Geolytix,,"30,138 ft2 > (2,800 m2)","SRID=27700;POINT(436264.67 145076.84)"
1010003935,Sainsburys,Sainsburys Local,Sainsburys Twickenham The Green Local,32-38 The Green,Twickenham,London,Twickenham,TW2 5AB,-0.341530196657185,51.4446545279363,515354.73,173044.7,Rooftop geocoded by Geolytix,,"< 3,013 ft2 (280m2)","SRID=27700;POINT(515354.73 173044.7)"
1010000278,Aldi,Aldi,Aldi Openshaw Manchester,Aston Old Road,Openshaw,Manchester,Openshaw,M11 2NN,-2.17414311304084,53.4733401177312,388538.5,397415.08,Rooftop geocoded by Geolytix,,"3,013 < 15,069 ft2 (280 < 1,400 m2)","SRID=27700;POINT(388538.5 397415.08)"
1010001393,Marks and Spencer,Marks and Spencer,M&S Arena Park Coventry,Unit 4-5 Arena Park,Foleshill Road,Coventry,Edgwick,CV6 6AS,-1.49260958568163,52.4453944846656,434583.79,283168.79,Rooftop geocoded by Geolytix,,"3,013 < 15,069 ft2 (280 < 1,400 m2)","SRID=27700;POINT(434583.79 283168.79)"
1010005894,Tesco,Tesco Express,Tesco Ossett Express,99 Dewsbury Road,,Ossett,,WF5 9NQ,-1.58300060472556,53.6880403370748,427636.34,421368.25,Rooftop geocoded by Geolytix,,"< 3,013 ft2 (280m2)","SRID=27700;POINT(427636.34 421368.25)"
1010013014,Farmfoods,Farmfoods,Farmfoods Clifton,Unit 2 Southchurch Drive,,"Clifton, Nottinghamshire",,NG11 8AA,-1.17738361127236,52.903947220683,455426.85,334373.38,Rooftop geocoded by Geolytix,,"3,013 < 15,069 ft2 (280 < 1,400 m2)","SRID=27700;POINT(455426.85 334373.38)"
1010011314,Iceland,Iceland,Iceland Clifton,252 Southchurch Drive,,"Clifton, Nottinghamshire",,NG11 8AA,-1.17872905031255,52.9024738781569,455338.23,334208.45,Rooftop geocoded by Geolytix,,"3,013 < 15,069 ft2 (280 < 1,400 m2)","SRID=27700;POINT(455338.23 334208.45)"
1010013170,Heron,Heron,Heron Clifton,234 South Church Drive,,"Clifton, Nottinghamshire",,NG11 8AA,-1.1781207851603,52.9029005425797,455378.6,334256.38,Rooftop geocoded by Geolytix,,"3,013 < 15,069 ft2 (280 < 1,400 m2)","SRID=27700;POINT(455378.6 334256.38)"
1010014510,The Co-operative Group,The Co-operative Food,Co-op St Helens - Elton Head Road,Elton Head Road,,St Helens,Thatto Heath,WA9 5BT,-2.74740056027465,53.4286471657845,350436.1962,392688.9953,Rooftop geocoded by Geolytix,,"< 3,013 ft2 (280m2)","SRID=27700;POINT(350436.1962 392688.9953)"
1010015174,Aldi,Aldi,Aldi Northenden,Altrincham Road,,Northenden,,M22 9SB,-2.25904760294126,53.397627800547,382872.2655,389009.0057,Rooftop geocoded by Geolytix,20180125,"3,013 < 15,069 ft2 (280 < 1,400 m2)","SRID=27700;POINT(382872.2655 389009.0057)"
1010002610,Morrisons,Morrisons,Morrisons Whitwood Castleford,Albion Street,,Castleford,Whitwood,WF10 1QX,-1.35929909823806,53.7234893487336,442374,425422,Rooftop geocoded by Geolytix,,"3,013 < 15,069 ft2 (280 < 1,400 m2)","SRID=27700;POINT(442374 425422)"
1010013506,Marks and Spencer,Marks and Spencer Foodhall,M&S Longwater Norwich Foodhall,Unit E1 Longwater Retail Park,,Norwich,New Costessey,NR5 0JT,1.18081825190797,52.6537524461004,615244.01,310973.85,Rooftop geocoded by Geolytix,20150819,"3,013 < 15,069 ft2 (280 < 1,400 m2)","SRID=27700;POINT(615244.01 310973.85)"
1010011003,Iceland,Iceland,Iceland Portadown,32 Meadow Lane,,Portadown,Portadown West,BT62 3NH,-6.44069928237209,54.4224210849818,112051.61,512085.8,Rooftop geocoded by Geolytix,,"3,013 < 15,069 ft2 (280 < 1,400 m2)","SRID=27700;POINT(112051.61 512085.8)"
1010013086,Farmfoods,Farmfoods,Farmfoods Wisbech,4 Sandown Road,,Wisbech,,PE14 0SL,0.147388788188243,52.6534174662932,545355.84,308351.51,Rooftop geocoded by Geolytix,,"3,013 < 15,069 ft2 (280 < 1,400 m2)","SRID=27700;POINT(545355.84 308351.51)"
1010013096,Farmfoods,Farmfoods,Farmfoods Sundorne Shrewsbury,Unit 1 Lancaster Retail Park,Brixton Way,Shrewsbury,Sundorne,SY1 3AZ,-2.7315366447483,52.7360847425487,350703.5,315634.6,Rooftop geocoded by Geolytix,,"3,013 < 15,069 ft2 (280 < 1,400 m2)","SRID=27700;POINT(350703.5 315634.6)"
1010011121,Iceland,Iceland,Iceland Shrewsbury,Lancaster Retail Park,Brixton Way,Shrewsbury,Sundorne,SY1 3AZ,-2.7310249228595,52.7359332749956,350737.88,315617.4,Rooftop geocoded by Geolytix,,"3,013 < 15,069 ft2 (280 < 1,400 m2)","SRID=27700;POINT(350737.88 315617.4)"
1010014332,Iceland,Iceland,Iceland Prenton,790-794 Borough Road,,Birkenhead,Prenton,CH42 9JG,-3.03270912174472,53.3751752985295,331393.1992,386976.9825,Rooftop geocoded by Geolytix,,"3,013 < 15,069 ft2 (280 < 1,400 m2)","SRID=27700;POINT(331393.1992 386976.9825)"
1010013831,Marks and Spencer,Marks and Spencer Foodhall,M&S Chesser Avenue Edinburgh Foodhall,Edinburgh West Retail Park,,Edinburgh,Craiglockhart,EH14 1RA,-3.24692555649805,55.9296112912758,322189.114648369,671429.371672551,Rooftop geocoded by Geolytix,20160427,"3,013 < 15,069 ft2 (280 < 1,400 m2)","SRID=27700;POINT(322189.114648369 671429.371672551)"
1010013959,Aldi,Aldi,Aldi Craiglockhart Edinburgh,Unit 1 Fruitmarket Place,,Edinburgh,Craiglockhart,EH14 1UD,-3.24784288986544,55.9290915807948,322130.758160433,671372.567306389,Rooftop geocoded by Geolytix,20169999,"3,013 < 15,069 ft2 (280 < 1,400 m2)","SRID=27700;POINT(322130.758160433 671372.567306389)"
1010008363,The Co-operative Group,The Co-operative Food,Co-op Holme Lacy Road,77-79 Holme Lacy Road,,Hereford,Newton Farm,HR2 6DF,-2.71311267649065,52.0424159596396,351186.4244,238464.4239,Rooftop geocoded by Geolytix,,"< 3,013 ft2 (280m2)","SRID=27700;POINT(351186.4244 238464.4239)"
1010012890,Farmfoods,Farmfoods,Farmfoods Cross Hands,Unit 1 Heol Stanllyd,Cross Hands Retail Park,Cross Hands,,SA14 6RB,-4.07688538260039,51.792837646157,256863.36,212505.8,Rooftop geocoded by Geolytix,,"3,013 < 15,069 ft2 (280 < 1,400 m2)","SRID=27700;POINT(256863.36 212505.8)"
1010013011,Farmfoods,Farmfoods,Farmfoods Norwich,Unit D Cathedral Retail Park,Barn Road,Norwich,Central Norwich,NR2 4SZ,1.28729753355989,52.6324648029738,622552.15,308930.28,Rooftop geocoded by Geolytix,,"3,013 < 15,069 ft2 (280 < 1,400 m2)","SRID=27700;POINT(622552.15 308930.28)"
1010013762,The Co-operative Group,The Co-operative Food,Co-op Leek Road,138-140 Leek Road,,Endon,,ST9 9EW,-2.1168986822199,53.0705197503794,392264.7114,352593.5078,Rooftop geocoded by Geolytix,,"3,013 < 15,069 ft2 (280 < 1,400 m2)","SRID=27700;POINT(392264.7114 352593.5078)"
1010012899,Farmfoods,Farmfoods,Farmfoods Dewsbury,Unit 1 Aldams Road,,Dewsbury,Central Dewsbury,WF12 8AR,-1.63165775668252,53.6889167194762,424422.51,421448.02,Rooftop geocoded by Geolytix,,"3,013 < 15,069 ft2 (280 < 1,400 m2)","SRID=27700;POINT(424422.51 421448.02)"
1010002439,Morrisons,Morrisons,Morrisons Bulwell Nottingham,Leen Drive,Bulwell,Nottingham,Bulwell,NG6 8EP,-1.1893380948153,53.0088881974134,454491,346038,Rooftop geocoded by Geolytix,,"30,138 ft2 > (2,800 m2)","SRID=27700;POINT(454491 346038)"
1010004055,Tesco,Tesco,Tesco Lisburn Bentrim Road Superstore,Bentrim Road,,Lisburn,Pond Park,BT28 2GB,-6.05781916874041,54.5147865261119,137465.9665,520855.0907,Rooftop geocoded by Geolytix,,"30,138 ft2 > (2,800 m2)","SRID=27700;POINT(137465.9665 520855.0907)"
1010000906,Asda,Asda Supercentre,Asda Hereford Supercentre,Belmount Road,,Hereford,Newton Farm,HR2 7JE,-2.72247741777917,52.0498631173504,350552.37,239299.08,Rooftop geocoded by Geolytix,,"30,138 ft2 > (2,800 m2)","SRID=27700;POINT(350552.37 239299.08)"
1010006935,Lidl,Lidl,Lidl Newhaven,3 The Hub,Drove Road,Newhaven,Newhaven,BN9 0AD,0.0569979816994115,50.7953528649189,545067.1,101548.46,Rooftop geocoded by Geolytix,,"3,013 < 15,069 ft2 (280 < 1,400 m2)","SRID=27700;POINT(545067.1 101548.46)"
1010007880,The Co-operative Group,The Co-operative Food,Co-op Barnstaple - Braunton Road,Braunton Road,,Barnstaple,Pilton,EX31 1NH,-4.0788628246529,51.0867048642744,254497.986,133988.3064,Rooftop geocoded by Geolytix,,"3,013 < 15,069 ft2 (280 < 1,400 m2)","SRID=27700;POINT(254497.986 133988.3064)"
1010002063,Marks and Spencer,Marks and Spencer Simply Food,M&S Galashiels SF,Unit 2 Gala Water Retail Park,,Galashiels,,TD1 3AP,-2.80272258135162,55.614002010418,349535.53,635893.09,Rooftop geocoded by Geolytix,,"3,013 < 15,069 ft2 (280 < 1,400 m2)","SRID=27700;POINT(349535.53 635893.09)"
1010011736,Central England Co-operative,The Co-operative Food,Co-op Stamford Road Kettering,60 Stamford Road,,Kettering,Kettering,NN16 8LL,-0.7150791310328,52.4029645096484,487513.99,279104.57,Rooftop geocoded by Geolytix,,"3,013 < 15,069 ft2 (280 < 1,400 m2)","SRID=27700;POINT(487513.99 279104.57)"
1010003626,Sainsburys,Sainsburys Local,Sainsburys Yeadon Local,125 Queensway,Yeadon,Yeadon,,LS19 7PL,-1.69268332802587,53.8704011703735,420305.15,441620.7,Rooftop geocoded by Geolytix,,"< 3,013 ft2 (280m2)","SRID=27700;POINT(420305.15 441620.7)"
1010003625,Sainsburys,Sainsburys Local,Sainsburys Rawdon Apperley Lane Local,Apperley Lane,Yeadon,Yeadon,,LS19 7BZ,-1.69041250060004,53.8580070546628,420460.48,440242.37,Rooftop geocoded by Geolytix,,"< 3,013 ft2 (280m2)","SRID=27700;POINT(420460.48 440242.37)"
1010007315,Lidl,Lidl,Lidl Hilsea Portsmouth,1 Norway Road,,Portsmouth,Hilsea,PO3 5HT,-1.06508566753568,50.8306604822735,465938.77,103874.66,Rooftop geocoded by Geolytix,,"3,013 < 15,069 ft2 (280 < 1,400 m2)","SRID=27700;POINT(465938.77 103874.66)"
1010006960,Lidl,Lidl,Lidl Larne,63 Circular Road,,Larne,Larne,BT40 1JS,-5.81859457655284,54.8505630317491,154975,557324,Rooftop geocoded by Geolytix,,"3,013 < 15,069 ft2 (280 < 1,400 m2)","SRID=27700;POINT(154975 557324)"
1010002214,Morrisons,Morrisons,Morrisons Rivenhall Witham,Braintree Road,,Witham,Chipping Hil,CM8 2BY,0.639543495408031,51.8090693198314,582063,215565,Rooftop geocoded by Geolytix,,"15,069 < 30,138 ft2 (1,400 < 2,800 m2)","SRID=27700;POINT(582063 215565)"
1010007506,Morrisons,Morrisons,Morrisons Weybridge,15 Monument Hill,,Weybridge,,KT13 8RT,-0.453961640448477,51.3724908048037,507710.82,164848.79,Rooftop geocoded by Geolytix,,"30,138 ft2 > (2,800 m2)","SRID=27700;POINT(507710.82 164848.79)"
1010010994,Iceland,Iceland,Iceland Larne,Point Street,,Larne,Larne,BT40 1HU,-5.8190420699673,54.8500343522387,154943.08,557266.78,Rooftop geocoded by Geolytix,,"3,013 < 15,069 ft2 (280 < 1,400 m2)","SRID=27700;POINT(154943.08 557266.78)"
1010010834,Iceland,Iceland,Iceland Old Oak Common Lane East Acton,90-92 Old Oak Common Lane,,London,East Acton,W3 7DA,-0.248946331339408,51.5147510848421,521602.15,180989.48,Rooftop geocoded by Geolytix,,"3,013 < 15,069 ft2 (280 < 1,400 m2)","SRID=27700;POINT(521602.15 180989.48)"
1010001713,Marks and Spencer,Marks and Spencer BP,M&S Longman BP,Longman Road,,Inverness,Central Inverness,IV1 1RY,-4.2215027483111,57.4841524949351,266914.99,845946.13,Rooftop geocoded by Geolytix,,"< 3,013 ft2 (280m2)","SRID=27700;POINT(266914.99 845946.13)"
1010000537,Aldi,Aldi,Aldi Huntington York,Kathryn Avenue,Huntington,York,Huntington,YO32 9JS,-1.04827317444239,53.9850838749584,462506.17,454755.92,Rooftop geocoded by Geolytix,,"3,013 < 15,069 ft2 (280 < 1,400 m2)","SRID=27700;POINT(462506.17 454755.92)"
1010011004,Iceland,Iceland,Iceland Strabane,Railway Street,,Strabane,,BT82 8EF,-7.46338333775271,54.8267632571718,49278.05,561682.36,Rooftop geocoded by Geolytix,,"3,013 < 15,069 ft2 (280 < 1,400 m2)","SRID=27700;POINT(49278.05 561682.36)"
1010009246,The Co-operative Group,The Co-operative Food,Co-op Elmbridge Parade,Greatfield Estate,Elmbridge Parade,Hull,Greatfield,HU9 4JU,-0.254858945482445,53.75649698018,515155.3657,430316.9477,Rooftop geocoded by Geolytix,,"3,013 < 15,069 ft2 (280 < 1,400 m2)","SRID=27700;POINT(515155.3657 430316.9477)"
1010013303,Heron,Heron,Heron Elmbridge Parade Greatfield Hull,9-10 Elmbridge Parade,,Hull,Greatfield,HU9 4JU,-0.253781524330299,53.7565678756331,515226.2,430326.58,Rooftop geocoded by Geolytix,,"3,013 < 15,069 ft2 (280 < 1,400 m2)","SRID=27700;POINT(515226.2 430326.58)"
1010011083,Iceland,Iceland,Iceland Fishponds,Unit 3A Channons Hill Retail Park,Channons Hill,Bristol,Fishponds,BS16 2EA,-2.53490118578684,51.4797831958603,362950.27,175783.15,Rooftop geocoded by Geolytix,,"3,013 < 15,069 ft2 (280 < 1,400 m2)","SRID=27700;POINT(362950.27 175783.15)"
1010011381,Iceland,Iceland,Iceland Hawick,43 Victoria Road,,Hawick,,TD9 7AH,-2.7907919174534,55.4236666926541,350045.93,614702.42,Rooftop geocoded by Geolytix,,"3,013 < 15,069 ft2 (280 < 1,400 m2)","SRID=27700;POINT(350045.93 614702.42)"
1010006988,Lidl,Lidl,Lidl Dowlais Merthyr Tydfil,Penygarnddu Ind Estate,Dowlais Top,Merthyr Tydfil,Dowlais,CF48 2TA,-3.33663168775553,51.7672980276062,307860.46,208469.95,Rooftop geocoded by Geolytix,,"3,013 < 15,069 ft2 (280 < 1,400 m2)","SRID=27700;POINT(307860.46 208469.95)"
1010014263,Iceland,The Food Warehouse,Iceland Ormskirk Food Warehouse,Hattersley Retail Park,Hattersley Way,Ormskirk,Ormskirk,L39 2XF,-2.8796128931284,53.5730668735462,341849.8545,408855.9887,Rooftop geocoded by Geolytix,20170299,"3,013 < 15,069 ft2 (280 < 1,400 m2)","SRID=27700;POINT(341849.8545 408855.9887)"
1010014672,East of England Co-operative,The Co-operative Food,Co-op Handford Road,Handford Road,,Ipswich,Central Ipswich,IP1 2BH,1.14016744689681,52.0580881686974,615372.0428,244620.9899,Rooftop geocoded by Geolytix,,"< 3,013 ft2 (280m2)","SRID=27700;POINT(615372.0428 244620.9899)"
1010013108,Farmfoods,Farmfoods,Farmfoods Glasgow Road Clydebank Glasgow,485A Glasgow Road,,Glasgow,Clydebank,G81 1JP,-4.39034255646558,55.8927229962216,250616.94,669204.11,Rooftop geocoded by Geolytix,,"3,013 < 15,069 ft2 (280 < 1,400 m2)","SRID=27700;POINT(250616.94 669204.11)"
1010012826,Farmfoods,Farmfoods,Farmfoods Orchard Park Hull,280 Greenwood Avenue,,Hull,Orchard Park,HU6 9QG,-0.377799511749214,53.7825236097418,506984.39,433020.2,Rooftop geocoded by Geolytix,,"3,013 < 15,069 ft2 (280 < 1,400 m2)","SRID=27700;POINT(506984.39 433020.2)"
1010012987,Farmfoods,Farmfoods,Farmfoods Anfield Liverpool,1 The Mall,Breck Road,Liverpool,Everton,L5 6SP,-2.9580297155898,53.4231231940987,336432.97,392241.8,Rooftop geocoded by Geolytix,,"3,013 < 15,069 ft2 (280 < 1,400 m2)","SRID=27700;POINT(336432.97 392241.8)"
1010001150,Booths,Booths,Booths Fulwood Preston,256-270 Sharoe Green Lane,Fulwood,Preston,Fulwood,PR2 9HD,-2.70644104359639,53.7926607958808,353559.85,433159.23,Rooftop geocoded by Geolytix,,"3,013 < 15,069 ft2 (280 < 1,400 m2)","SRID=27700;POINT(353559.85 433159.23)"
1010014917,Marks and Spencer,Marks and Spencer Foodhall,M&S Barnsley Cortonwood Foodhall,Corton Wood,,Wath Upon Dearne,Brampton Bierlow,S73 0FA,-1.38675401889234,53.5067310452789,440770.1262,401290.6417,Rooftop geocoded by Geolytix,20170830,"3,013 < 15,069 ft2 (280 < 1,400 m2)","SRID=27700;POINT(440770.1262 401290.6417)"
1010014819,The Southern Co-operative,The Co-operative Food,Co-op Denmead,62 Hambledon Road,,Denmead,,PO7 6NU,-1.06554896187946,50.9040151879349,465802.9686,112031.4008,Rooftop geocoded by Geolytix,,"3,013 < 15,069 ft2 (280 < 1,400 m2)","SRID=27700;POINT(465802.9686 112031.4008)"
1010006716,Waitrose,Waitrose,Waitrose Caldicot,43 Newport Road,,Caldicot,Caldicot,NP26 4UX,-2.75262486194152,51.5903031398025,347957.03,188207.61,Rooftop geocoded by Geolytix,,"3,013 < 15,069 ft2 (280 < 1,400 m2)","SRID=27700;POINT(347957.03 188207.61)"
1010006185,Tesco,Tesco Extra,Tesco Gallions Reach Way,1 Armada Way,Beckton,London,Beckton,E6 7FB,0.0755140826359807,51.5176139874585,544105.37,181896.42,Rooftop geocoded by Geolytix,,"30,138 ft2 > (2,800 m2)","SRID=27700;POINT(544105.37 181896.42)"
1010010983,Iceland,Iceland,Iceland Andersonstown Road,151 Andersonstown Road,,Belfast,Andersonstown,BT11 9BW,-5.99069340276245,54.5732550528194,142177.64,527107.18,Rooftop geocoded by Geolytix,,"3,013 < 15,069 ft2 (280 < 1,400 m2)","SRID=27700;POINT(142177.64 527107.18)"
1010002248,Morrisons,Morrisons,Morrisons Calside Dumfries,Brooms Road,,Dumfries,Calside,DG1 2SH,-3.60076786664156,55.0688446631942,297876.26,576102.02,Rooftop geocoded by Geolytix,,"15,069 < 30,138 ft2 (1,400 < 2,800 m2)","SRID=27700;POINT(297876.26 576102.02)"
1010000795,Asda,Asda Superstore,Asda Swansea Superstore,Upper Forest Way,,Swansea,Llansamlet,SA6 8PS,-3.91704616355168,51.6645351198493,267510.76,197935.69,Rooftop geocoded by Geolytix,,"30,138 ft2 > (2,800 m2)","SRID=27700;POINT(267510.76 197935.69)"
1010004136,Tesco,Tesco,Tesco Dumfries Peel Centre Superstore,Lockerbie Road,,Dumfries,Calside,DG1 3PF,-3.5815753785458,55.0752965337866,299118,576792,Rooftop geocoded by Geolytix,,"30,138 ft2 > (2,800 m2)","SRID=27700;POINT(299118 576792)"
1010000800,Asda,Asda Superstore,Asda Hyde Superstore,Greenfield Street,,Hyde,Godley,SK14 1BD,-2.08280353254155,53.4505866844904,394598.31,394872.73,Rooftop geocoded by Geolytix,,"30,138 ft2 > (2,800 m2)","SRID=27700;POINT(394598.31 394872.73)"
1010007618,The Co-operative Group,The Co-operative Food,Co-op Lossiemouth,Couldardbank Road,Faroes Court,Lossiemouth,,IV31 6ED,-3.29894290468605,57.7131444878041,322707.23,870003.48,Rooftop geocoded by Geolytix,,"3,013 < 15,069 ft2 (280 < 1,400 m2)","SRID=27700;POINT(322707.23 870003.48)"
1010015251,Lidl,Lidl,Lidl Wellington Road Torry Aberdeen,Wellington Road,,Aberdeen,Torry,AB12 3AX,-2.09037600289642,57.1278005319754,394627.4771,804101.0633,Rooftop geocoded by Geolytix,20181003,"3,013 < 15,069 ft2 (280 < 1,400 m2)","SRID=27700;POINT(394627.4771 804101.0633)"
1010003548,Sainsburys,Sainsburys Local,Sainsburys Frimley Local,7 Heather Ridge Arcade,,Frimley,Heatherside,GU15 1AX,-0.702451533276902,51.3296560182349,490499.28,159749.94,Rooftop geocoded by Geolytix,,"3,013 < 15,069 ft2 (280 < 1,400 m2)","SRID=27700;POINT(490499.28 159749.94)"
1010001857,Marks and Spencer,Marks and Spencer Outlet,M&S Street Outlet,Unit 23 Clarks Village,Farm Road,Street,Street,BA16 0BB,-2.74062064971457,51.1286746872198,348270.09,136860.55,Rooftop geocoded by Geolytix,,"3,013 < 15,069 ft2 (280 < 1,400 m2)","SRID=27700;POINT(348270.09 136860.55)"
1010001863,Marks and Spencer,Marks and Spencer Outlet,M&S Braintree Outlet,Unit E2-3 Charter Way,,Braintree,Cressing Road,CM77 8YH,0.571911310259828,51.8707468657058,577159.08,222256.61,Rooftop geocoded by Geolytix,,"3,013 < 15,069 ft2 (280 < 1,400 m2)","SRID=27700;POINT(577159.08 222256.61)"
1010001891,Marks and Spencer,Marks and Spencer Outlet,M&S Ashford Outlet,Units 6-10 MGD Outlet Centre,Kimberley Way,"Ashford, Kent",South Willesborough,TN24 0SD,0.878041862187836,51.1353386020603,601447.41,141278.97,Rooftop geocoded by Geolytix,,"3,013 < 15,069 ft2 (280 < 1,400 m2)","SRID=27700;POINT(601447.41 141278.97)"
1010006922,Lidl,Lidl,Lidl Canford Heath Poole,Hatch Pond Road,,Poole,Canford Heath,BH17 7LQ,-1.9839213069746,50.743658727034,401230.8,93783.68,Rooftop geocoded by Geolytix,,"3,013 < 15,069 ft2 (280 < 1,400 m2)","SRID=27700;POINT(401230.8 93783.68)"
1010000041,Aldi,Aldi,Aldi Wallisdown Bournemouth,Wallisdown Road,,Bournemouth,Wallisdown,BH10 4HZ,-1.90958989656818,50.746650981163,406475.04,94120.18,Rooftop geocoded by Geolytix,,"3,013 < 15,069 ft2 (280 < 1,400 m2)","SRID=27700;POINT(406475.04 94120.18)"
1010001870,Marks and Spencer,Marks and Spencer Outlet,M&S Atlantic Village Bideford Outlet,Unit 24 Clovelly Road,,Bideford,Bideford,EX39 3QU,-4.23708652639138,51.0071667336722,243148.83,125469.36,Rooftop geocoded by Geolytix,,"3,013 < 15,069 ft2 (280 < 1,400 m2)","SRID=27700;POINT(243148.83 125469.36)"
1010002539,Morrisons,Morrisons,Morrisons Godley Hyde,Mottram Road,,Hyde,Godley,SK14 2NG,-2.07437881556049,53.4522305751193,395158,395055,Rooftop geocoded by Geolytix,,"30,138 ft2 > (2,800 m2)","SRID=27700;POINT(395158 395055)"
1010006198,Tesco,Tesco Extra,Tesco Rutherglen Extra,Dalmarnoch Road,Rutherglen,Glasgow,Rutherglen,G73 1NY,-4.21111424239316,55.8344036265541,261615.54,662342.24,Rooftop geocoded by Geolytix,,"30,138 ft2 > (2,800 m2)","SRID=27700;POINT(261615.54 662342.24)"
1010013234,Heron,Heron,Heron Old Oscott Birmingham,232-234 Hawthorn Road,,Birmingham,Old Oscott,B44 8PT,-1.88484577423915,52.5408793157424,407907.05,293675.36,Rooftop geocoded by Geolytix,,"3,013 < 15,069 ft2 (280 < 1,400 m2)","SRID=27700;POINT(407907.05 293675.36)"
1010000522,Aldi,Aldi,Aldi Primsland Droitwich,Kidderminster Road,,Droitwich,Primsland,WR9 9AY,-2.15974321857369,52.2729161146101,389196.98,263874.64,Rooftop geocoded by Geolytix,,"3,013 < 15,069 ft2 (280 < 1,400 m2)","SRID=27700;POINT(389196.98 263874.64)"
1010001926,Marks and Spencer,Marks and Spencer Simply Food,M&S Binley Coventry SF,Binley Shopping Centre,,Coventry,Binley,CV3 2TA,-1.43161791432962,52.3979925336183,438770.73,277926.98,Rooftop geocoded by Geolytix,,"3,013 < 15,069 ft2 (280 < 1,400 m2)","SRID=27700;POINT(438770.73 277926.98)"
1010000857,Asda,Asda Living,Asda Living Coventry,Warwickshire Shopping Park,Kynner Way,Coventry,Binley,CV3 2TA,-1.43371301655433,52.3978738435307,438628.28,277912.66,Rooftop geocoded by Geolytix,,"30,138 ft2 > (2,800 m2)","SRID=27700;POINT(438628.28 277912.66)"
1010008404,The Co-operative Group,The Co-operative Food,Co-op Donaghadee,20 New Street,,Donaghadee,,BT21 0AG,-5.53560347332284,54.6421197316206,171962.9986,533189.4677,Rooftop geocoded by Geolytix,,"3,013 < 15,069 ft2 (280 < 1,400 m2)","SRID=27700;POINT(171962.9986 533189.4677)"
1010006929,Lidl,Lidl,Lidl Moses Gate Farnworth,Albert Road,,Farnworth,Moses Gate,BL4 9HF,-2.39868632444243,53.5459176121823,373679.46,405549.53,Rooftop geocoded by Geolytix,,"3,013 < 15,069 ft2 (280 < 1,400 m2)","SRID=27700;POINT(373679.46 405549.53)"
1010014080,Aldi,Aldi,Aldi North Road RP Harrowgate Darlington,5 North Road Retail Park,,Darlington,Harrowgate,DL1 2EE,-1.55148734680752,54.5353942012088,429119.8973,515661.5632,Rooftop geocoded by Geolytix,,"3,013 < 15,069 ft2 (280 < 1,400 m2)","SRID=27700;POINT(429119.8973 515661.5632)"
1010012260,Scottish Midland Co-operative,The Co-operative Food,Co-op Scotmid Gorgie,236 Gorgie Road,,Edinburgh,Dalry,EH11 2PL,-3.23462877118606,55.9374725251604,322973.01,672290.46,Rooftop geocoded by Geolytix,,"3,013 < 15,069 ft2 (280 < 1,400 m2)","SRID=27700;POINT(322973.01 672290.46)"
1010005820,Tesco,Tesco Express,Tesco Feltham Horse And Groom Express,1 Hampton Road West,Feltham,London,Hanworth,TW13 6AH,-0.388304751967698,51.4408315868624,512113.6,172547.02,Rooftop geocoded by Geolytix,,"< 3,013 ft2 (280m2)","SRID=27700;POINT(512113.6 172547.02)"
1010000909,Asda,Asda Supercentre,Asda Pudsey Supercentre,Owlcotes Shopping Centre,,Leeds,Farsley,LS28 6AR,-1.67129837206146,53.8037869712698,421745.61,434215.49,Rooftop geocoded by Geolytix,,"30,138 ft2 > (2,800 m2)","SRID=27700;POINT(421745.61 434215.49)"
1010001676,Marks and Spencer,Marks and Spencer BP,M&S Stonebridge Coventry BP,Stonebridge Highway,,Coventry,Stivichall,CV3 6RQ,-1.51530796954235,52.3790075198136,433090.49,275773.79,Rooftop geocoded by Geolytix,,"< 3,013 ft2 (280m2)","SRID=27700;POINT(433090.49 275773.79)"
1010000641,Asda,Asda Superstore,Asda Doncaster Superstore,Gliwice Way,Bawtry Road,Doncaster,Central Doncaster,DN4 5NW,-1.10230252894451,53.5162837069993,459622.21,402553.3,Rooftop geocoded by Geolytix,,"30,138 ft2 > (2,800 m2)","SRID=27700;POINT(459622.21 402553.3)"
1010000888,Asda,Asda Supercentre,Asda Minworth Supercentre,Walmley Ash Road,Sutton Coldfield,Birmingham,Walmley,B76 1XL,-1.78031086318189,52.5327410515414,414999.57,292786.51,Rooftop geocoded by Geolytix,,"30,138 ft2 > (2,800 m2)","SRID=27700;POINT(414999.57 292786.51)"
1010012134,East of England Co-operative,The Co-operative Food,Co-op Greenstead Foodstore,The Centre,,Colchester,Greenstead,CO4 3PX,0.936447725509074,51.8913429536599,602158.16,225496.08,Rooftop geocoded by Geolytix,,"3,013 < 15,069 ft2 (280 < 1,400 m2)","SRID=27700;POINT(602158.16 225496.08)"
1010012184,East of England Co-operative,The Co-operative Food,Co-op Broke Hall Foodstore,123 Penshurst Road,,Ipswich,Rushmere,IP3 8QB,1.20507245871341,52.0455600939284,619882.01,243422.5,Rooftop geocoded by Geolytix,,"3,013 < 15,069 ft2 (280 < 1,400 m2)","SRID=27700;POINT(619882.01 243422.5)"
1010009847,The Co-operative Group,The Co-operative Food,Co-op The Grotton,Oldham Road,Grotton,Oldham,Lees,OL4 5SE,-2.05477780413588,53.5373974509219,396467,404529,Rooftop geocoded by Geolytix,,"3,013 < 15,069 ft2 (280 < 1,400 m2)","SRID=27700;POINT(396467 404529)"
1010001864,Marks and Spencer,Marks and Spencer Outlet,M&S Clacton Outlet,Unit 27-29 Clacton Outlet Park,,Clacton-on-Sea,Burrsville Park,CO15 4TL,1.16941661678447,51.8181122595741,618539.88739763,218026.595818083,Rooftop geocoded by Geolytix,,"3,013 < 15,069 ft2 (280 < 1,400 m2)","SRID=27700;POINT(618539.88739763 218026.595818083)"
1010013464,Marks and Spencer,Marks and Spencer Hospital,M&S Dartford Hospital,Darenth Wood Road,,Dartford,Fleet,DA2 8DA,0.258663515389829,51.4349599600525,557095.27,173081.89,Rooftop geocoded by Geolytix,,"< 3,013 ft2 (280m2)","SRID=27700;POINT(557095.27 173081.89)"
1010012270,Scottish Midland Co-operative,The Co-operative Food,Co-op Scotmid Balerno 1,6 Main Street,,Edinburgh,Balerno,EH14 7EH,-3.33951887544089,55.8841509665835,316306.17,666478.4,Rooftop geocoded by Geolytix,,"3,013 < 15,069 ft2 (280 < 1,400 m2)","SRID=27700;POINT(316306.17 666478.4)"
1010004033,Tesco,Tesco,Tesco Poole Branksome Superstore,Poole Road,Branksome,Poole,Branksome Park,BH12 1AU,-1.91378329849611,50.7248363623725,406182,91694,Rooftop geocoded by Geolytix,,"15,069 < 30,138 ft2 (1,400 < 2,800 m2)","SRID=27700;POINT(406182 91694)"
1010011140,Iceland,Iceland,Iceland Pallion,Unit 3 MFI Retail Park,European Way,Sunderland,Pallion,SR4 6TY,-1.42050178290993,54.9135355644514,437248.24,557801.27,Rooftop geocoded by Geolytix,,"3,013 < 15,069 ft2 (280 < 1,400 m2)","SRID=27700;POINT(437248.24 557801.27)"
1010006299,Tesco,Tesco Extra,Tesco Swansea Llansamlet Extra,Nantyffin Road,Llansamlet,Swansea,Llansamlet,SA7 9RD,-3.90151718000922,51.6577408102316,268565,197152.04,Rooftop geocoded by Geolytix,,"30,138 ft2 > (2,800 m2)","SRID=27700;POINT(268565 197152.04)"
1010010772,Iceland,Iceland,Iceland Clacton,2B Waterglade Retail Park,Old Road,Clacton-on-Sea,Central Clacton,CO15 1HX,1.14667336361548,51.7899006267938,617108.252273127,214821.981787841,Rooftop geocoded by Geolytix,,"3,013 < 15,069 ft2 (280 < 1,400 m2)","SRID=27700;POINT(617108.252273127 214821.981787841)"
1010013997,Sainsburys,Sainsburys Local,Sainsburys Peckham Queens Road Local,83-89 Queens Road,,London,Peckham,SE15 2EZ,-0.0608213236388839,51.4741351772862,534774.72,176802,Rooftop geocoded by Geolytix,20169999,"< 3,013 ft2 (280m2)","SRID=27700;POINT(534774.72 176802)"
1010012474,Midcounties Co-operative,The Co-operative Food,Co-op Covingham (Swindon 2),8 Covingham Square,,Swindon,Covingham,SN3 5AQ,-1.73891169055477,51.5673109191537,418193.32,185414.16,Rooftop geocoded by Geolytix,,"3,013 < 15,069 ft2 (280 < 1,400 m2)","SRID=27700;POINT(418193.32 185414.16)"
1010005215,Tesco,Tesco Express,Tesco Radcliffe Water Street Express,55 Water Street,,Radcliffe,Radcliffe,M26 4GR,-2.33394654670746,53.5630008697854,377978.19,407428.05,Rooftop geocoded by Geolytix,,"< 3,013 ft2 (280m2)","SRID=27700;POINT(377978.19 407428.05)"
1010001360,Marks and Spencer,Marks and Spencer,M&S Ballymena,The Fairhill Shopping Centre,Broughshane Street,Ballymena,Central Ballymena,BT43 6UG,-6.27339929785549,54.8693207096136,125924.96,561097,Rooftop geocoded by Geolytix,,"3,013 < 15,069 ft2 (280 < 1,400 m2)","SRID=27700;POINT(125924.96 561097)"
1010010979,Iceland,Iceland,Iceland Ballymena,35-43 High Street,,Ballymena,Central Ballymena,BT43 6DT,-6.27454785636838,54.8685648626313,125846.18,561017.47,Rooftop geocoded by Geolytix,,"3,013 < 15,069 ft2 (280 < 1,400 m2)","SRID=27700;POINT(125846.18 561017.47)"
1010001006,Asda,Asda Supermarket,Asda Ardrossan Supermarket,Harbour Road,Ardrossan,Saltcoats,Ardrossan,KA22 8BZ,-4.81484198405007,55.6389459900991,222930.23,641971.1,Rooftop geocoded by Geolytix,,"15,069 < 30,138 ft2 (1,400 < 2,800 m2)","SRID=27700;POINT(222930.23 641971.1)"
1010000725,Asda,Asda Superstore,Asda Radcliffe Superstore,Riverside Retail Park,,Radcliffe,Radcliffe,M26 3DA,-2.32857143122314,53.5572678912318,378331.27,406788.57,Rooftop geocoded by Geolytix,,"30,138 ft2 > (2,800 m2)","SRID=27700;POINT(378331.27 406788.57)"
1010009481,The Co-operative Group,The Co-operative Food,Co-op Broughshane Street,121 Broughshane Street,,Ballymena,Central Ballymena,BT43 6EE,-6.27091756337171,54.869783721082,126087.2275,561138.7533,Rooftop geocoded by Geolytix,,"3,013 < 15,069 ft2 (280 < 1,400 m2)","SRID=27700;POINT(126087.2275 561138.7533)"
1010006005,Tesco,Tesco Express Esso,Tesco Tarbock Woodlands Esso Express,Cronton Road,Tarbook,Liverpool,Huyton,L35 1QY,-2.81803916648805,53.3981782761017,345703.81,389350.86,Rooftop geocoded by Geolytix,,"< 3,013 ft2 (280m2)","SRID=27700;POINT(345703.81 389350.86)"
1010000076,Aldi,Aldi,Aldi Llantrisant,Unit 3 Glamorgan Vale Retail Park,,"Llantrisant, Mid Glamorgan",,CF72 8RP,-3.37671309236702,51.5334341750536,304604.42,182512.92,Rooftop geocoded by Geolytix,,"3,013 < 15,069 ft2 (280 < 1,400 m2)","SRID=27700;POINT(304604.42 182512.92)"
1010008403,The Co-operative Group,The Co-operative Food,Co-op Cregagh,61 Cregagh Road,,Belfast,Ormeau,BT6 8PY,-5.89935327698164,54.5845740210771,148147.8731,528034.145,Rooftop geocoded by Geolytix,,"3,013 < 15,069 ft2 (280 < 1,400 m2)","SRID=27700;POINT(148147.8731 528034.145)"
1010007042,Lidl,Lidl,Lidl Woodhouse Close Estate Bishop Auckland,St Helens Auckland,,Bishop Auckland,Woodhouse Close Estate,DL14 9AB,-1.69361655725093,54.6415764912476,419871.69,527427.6,Rooftop geocoded by Geolytix,,"3,013 < 15,069 ft2 (280 < 1,400 m2)","SRID=27700;POINT(419871.69 527427.6)"
1010012500,Midcounties Co-operative,The Co-operative Food,Co-op Northway,Northway Lane,,Tewkesbury,Northway,GL20 8TW,-2.1113527598348,52.0045678532453,392452.96,234020.42,Rooftop geocoded by Geolytix,,"3,013 < 15,069 ft2 (280 < 1,400 m2)","SRID=27700;POINT(392452.96 234020.42)"
1010011217,Iceland,Iceland,Iceland Drumchapel,21 Dunkenny Square,,Glasgow,Drumchapel,G15 8NB,-4.37225221439031,55.9104345610963,251815.6,671135.81,Rooftop geocoded by Geolytix,,"3,013 < 15,069 ft2 (280 < 1,400 m2)","SRID=27700;POINT(251815.6 671135.81)"
1010012934,Farmfoods,Farmfoods,Farmfoods Drumchapel Glasgow,12 Dunkenny Mall,,Glasgow,Drumchapel,G15 8NB,-4.37245354387052,55.9102386142985,251802.27,671114.44,Rooftop geocoded by Geolytix,,"3,013 < 15,069 ft2 (280 < 1,400 m2)","SRID=27700;POINT(251802.27 671114.44)"
1010010425,Aldi,Aldi,Aldi Pooley Bridge Penrith,Cavendish Road,,Penrith,Pooley Bridge,CA11 7GS,-2.75988065795558,54.6597233946197,351077.99,529669.22,Rooftop geocoded by Geolytix,,"3,013 < 15,069 ft2 (280 < 1,400 m2)","SRID=27700;POINT(351077.99 529669.22)"
1010014331,Iceland,Iceland,Iceland Penrith,Castle Retail Park,Cavendish Way,Penrith,Pooley Bridge,CA11 7JQ,-2.75953121852952,54.6601845262796,351101.087,529720.2875,Rooftop geocoded by Geolytix,,"3,013 < 15,069 ft2 (280 < 1,400 m2)","SRID=27700;POINT(351101.087 529720.2875)"
1010009988,The Co-operative Group,The Co-operative Food,Co-op Dundee - Barnhill,Unit 7 Campfield Square,Broughty Ferry,Dundee,Broughty Ferry,DD5 2PU,-2.85825372061172,56.474396321956,347228,731694,Rooftop geocoded by Geolytix,,"3,013 < 15,069 ft2 (280 < 1,400 m2)","SRID=27700;POINT(347228 731694)"
1010003299,Sainsburys,Sainsburys,Sainsburys Falmouth,Ponsharden,,Falmouth,Mongleath,TR11 2RZ,-5.08926913179392,50.1622759710022,179456,33706,Rooftop geocoded by Geolytix,,"15,069 < 30,138 ft2 (1,400 < 2,800 m2)","SRID=27700;POINT(179456 33706)"
1010002158,Morrisons,Morrisons,Morrisons Lansdown Bath,York Place,London Road,Bath,Fairfield Park,BA1 6AE,-2.3503352224198,51.3915025413447,375720.48,165887.51,Rooftop geocoded by Geolytix,,"15,069 < 30,138 ft2 (1,400 < 2,800 m2)","SRID=27700;POINT(375720.48 165887.51)"
1010007905,The Co-operative Group,The Co-operative Food,Co-op Carron Village,1 Ronades Road,New Carron Village,Falkirk,Bainsford,FK2 7TA,-3.79222935635402,56.01585571467,288370.3325,681775.3792,Rooftop geocoded by Geolytix,,"15,069 < 30,138 ft2 (1,400 < 2,800 m2)","SRID=27700;POINT(288370.3325 681775.3792)"
1010010401,Asda,Asda PFS,Asda Leamington Rugby Road Petrol Filling Station,130 Rugby Road,,Royal Leamington Spa,Central Leamington,CV32 6DN,-1.54763912488066,52.2932632640838,430949.26,266222.07,Rooftop geocoded by Geolytix,20159999,"< 3,013 ft2 (280m2)","SRID=27700;POINT(430949.26 266222.07)"
1010014345,Iceland,Iceland,Iceland Barnhill,Campfield Square,Nursery Road,Dundee,Broughty Ferry,DD5 2PU,-2.85880535756885,56.4746359448627,347194.3521,731721.0957,Rooftop geocoded by Geolytix,,"3,013 < 15,069 ft2 (280 < 1,400 m2)","SRID=27700;POINT(347194.3521 731721.0957)"
1010015090,Budgens,Budgens,Budgens Emsworth,A27 East,,"New Brighton, Hampshire",,PO10 7RB,-0.944414280747839,50.8534084203286,474400.8766,106518.6608,Rooftop geocoded by Geolytix,20179999,"3,013 < 15,069 ft2 (280 < 1,400 m2)","SRID=27700;POINT(474400.8766 106518.6608)"
1010005361,Tesco,Tesco Express,Tesco Blackwood Newport Express,Unit C Highfields Way,,Blackwood,Cefn Fforest,NP12 1SL,-3.20640462219785,51.6611397973378,316651.45,196506.86,Rooftop geocoded by Geolytix,,"< 3,013 ft2 (280m2)","SRID=27700;POINT(316651.45 196506.86)"
1010010752,Iceland,Iceland,Iceland Bretton,The Bretton Centre,,Peterborough,North Bretton,PE3 8DF,-0.285203461196068,52.5915020474869,516259.81,300680.8,Rooftop geocoded by Geolytix,,"3,013 < 15,069 ft2 (280 < 1,400 m2)","SRID=27700;POINT(516259.81 300680.8)"
1010012970,Farmfoods,Farmfoods,Farmfoods North Lynn King's Lynn,St Nicholas Retail Park,,King's Lynn,North Lynn,PE30 2HY,0.399281975861692,52.7610971480011,561993.37,320864.56,Rooftop geocoded by Geolytix,,"3,013 < 15,069 ft2 (280 < 1,400 m2)","SRID=27700;POINT(561993.37 320864.56)"
1010015064,Lidl,Lidl,Lidl Garforth,Aberford Road,,Garforth,Garforth,LS25 2JY,-1.37866914404234,53.7974099767414,441023.9833,433634.8697,Rooftop geocoded by Geolytix,20189999,"3,013 < 15,069 ft2 (280 < 1,400 m2)","SRID=27700;POINT(441023.9833 433634.8697)"
1010014796,The Southern Co-operative,The Co-operative Food,Co-op Llewellyns Garage,275 High Street,,Blackwood,Cefn Fforest,NP12 1AW,-3.19220593979584,51.6620459870857,317635.1648,196591.5117,Rooftop geocoded by Geolytix,,"< 3,013 ft2 (280m2)","SRID=27700;POINT(317635.1648 196591.5117)"
1010014065,Iceland,The Food Warehouse,Iceland Trafford Food Warehouse,Unit 5 Trafford Retail Park,,Manchester,Davyhulme,M41 7FN,-2.35996093757268,53.4633392869204,376199.0609,396348.6967,Rooftop geocoded by Geolytix,,"3,013 < 15,069 ft2 (280 < 1,400 m2)","SRID=27700;POINT(376199.0609 396348.6967)"
1010012399,Midcounties Co-operative,The Co-operative Food,Co-op Grove,Grovelands Shopping Centre,Saville Way,"Grove, Oxfordshire",,OX12 0PT,-1.43022051089278,51.6072741574727,439554.72,189980.2,Rooftop geocoded by Geolytix,,"3,013 < 15,069 ft2 (280 < 1,400 m2)","SRID=27700;POINT(439554.72 189980.2)"
1010009814,The Co-operative Group,The Co-operative Food,Co-op Middlesbrough,469 Linthorpe Road,Linthorpe,Middlesbrough,Linthorpe,TS5 6HX,-1.24317575049331,54.5604386354105,449039.62,518619.12,Rooftop geocoded by Geolytix,,"3,013 < 15,069 ft2 (280 < 1,400 m2)","SRID=27700;POINT(449039.62 518619.12)"
1010013167,Heron,Heron,Heron Linthorpe Road Linthorpe Middlesbrough,449 Linthorpe Road,,Middlesbrough,Linthorpe,TS5 6HX,-1.24306565323776,54.5607556397452,449046.36,518654.47,Rooftop geocoded by Geolytix,,"3,013 < 15,069 ft2 (280 < 1,400 m2)","SRID=27700;POINT(449046.36 518654.47)"
1010011107,Iceland,Iceland,Iceland Rugeley,27 Market Square,,Rugeley,Springfields,WS15 2BS,-1.93476022085496,52.7606492836919,404499.71,318118.01,Rooftop geocoded by Geolytix,,"3,013 < 15,069 ft2 (280 < 1,400 m2)","SRID=27700;POINT(404499.71 318118.01)"
1010005216,Tesco,Tesco Express,Tesco Manchester Swinton Express,656 Manchester Road,Swinton,Manchester,Swinton,M27 9RA,-2.35331067449761,53.5172686061882,376670.34,402346.32,Rooftop geocoded by Geolytix,,"< 3,013 ft2 (280m2)","SRID=27700;POINT(376670.34 402346.32)"
1010013825,Marks and Spencer,Marks and Spencer Foodhall,M&S Rawtenstall Foodhall,Unit A1 New Hall Hey Retail Park,,Rawtenstall,,BB4 6HR,-2.29731254502469,53.6980069170214,380467.4875,422437.5791,Rooftop geocoded by Geolytix,20160499,"3,013 < 15,069 ft2 (280 < 1,400 m2)","SRID=27700;POINT(380467.4875 422437.5791)"
1010013293,Heron,Heron,Heron Westerhope Newcastle Upon Tyne,Hillhead Parkway,,Newcastle Upon Tyne,Westerhope,NE5 1DT,-1.71694232034545,54.995132548929,418207.55,566764.48,Rooftop geocoded by Geolytix,,"3,013 < 15,069 ft2 (280 < 1,400 m2)","SRID=27700;POINT(418207.55 566764.48)"
1010014309,Iceland,Iceland,Iceland Bedford Goldington Square,"95-97 Church Lane, Bedford",,Bedford,Goldington,MK41 0PW,-0.427740286928131,52.1523434132589,507666.4445,251616.4383,Rooftop geocoded by Geolytix,,"3,013 < 15,069 ft2 (280 < 1,400 m2)","SRID=27700;POINT(507666.4445 251616.4383)"
1010014268,Iceland,The Food Warehouse,Iceland Great Yarmouth Food Warehouse,Unit C1 Great Yarmouth Shopping Centre,Gapton Hall Road,Great Yarmouth,Cobholm,NR31 0NL,1.71108054528719,52.5981182232012,651416.8344,306504.8542,Rooftop geocoded by Geolytix,20160999,"3,013 < 15,069 ft2 (280 < 1,400 m2)","SRID=27700;POINT(651416.8344 306504.8542)"
1010012653,Marks and Spencer,Marks and Spencer Foodhall,M&S Gapton Hall Foodhall,Unit G Gapton Hall Retail Park,,Great Yarmouth,Cobholm,NR31 0NL,1.71089158923458,52.5976473029207,651406.74,306451.84,Rooftop geocoded by Geolytix,20150114,"3,013 < 15,069 ft2 (280 < 1,400 m2)","SRID=27700;POINT(651406.74 306451.84)"
1010000726,Asda,Asda Superstore,Asda Swinton Superstore,15 Wellington Road,,Manchester,Swinton,M27 4BR,-2.33766800595722,53.5118077994108,377704.68,401733.75,Rooftop geocoded by Geolytix,,"30,138 ft2 > (2,800 m2)","SRID=27700;POINT(377704.68 401733.75)"
1010002390,Morrisons,Morrisons,Morrisons Swinton Manchester,49 Swinton Hall Road,Swinton,Manchester,Swinton,M27 4BT,-2.33510000871613,53.5137587785643,377876,401950,Rooftop geocoded by Geolytix,,"15,069 < 30,138 ft2 (1,400 < 2,800 m2)","SRID=27700;POINT(377876 401950)"
1010004274,Tesco,Tesco,Tesco Atherton Superstore,Crabtree Lane,,Atherton,Hag Fold,M46 0AG,-2.48953156720779,53.5225738696953,367642,402990,Rooftop geocoded by Geolytix,,"15,069 < 30,138 ft2 (1,400 < 2,800 m2)","SRID=27700;POINT(367642 402990)"
1010000560,Asda,Asda Superstore,Asda Accrington Superstore,Hyndburn Road,,Accrington,Milnshaw,BB5 1QR,-2.37278042386447,53.7566261710884,375518.98,428982.94,Rooftop geocoded by Geolytix,,"30,138 ft2 > (2,800 m2)","SRID=27700;POINT(375518.98 428982.94)"
1010007549,Makro,Makro,Makro Belfast,97 Kingsway Dunmurry,,Lisburn,Kingsway,BT17 9NS,-6.00007026123247,54.5529139953249,141443.07,524880.03,Rooftop geocoded by Geolytix,,"30,138 ft2 > (2,800 m2)","SRID=27700;POINT(141443.07 524880.03)"
1010000125,Aldi,Aldi,Aldi Castle Gresley Swadlincote,Hepworth Retail Park,Pipeworks,Swadlincote,Swadlincote,DE11 9FQ,-1.55527879713612,52.7708504514683,430101.13,319343.42,Rooftop geocoded by Geolytix,,"3,013 < 15,069 ft2 (280 < 1,400 m2)","SRID=27700;POINT(430101.13 319343.42)"
1010011189,Iceland,Iceland,Iceland Swadlincote,"Unit 3, The Pipeworks",Coppice Side,Swadlincote,Swadlincote,DE11 9FQ,-1.55578966161801,52.7708704331729,430066.65,319345.43,Rooftop geocoded by Geolytix,,"3,013 < 15,069 ft2 (280 < 1,400 m2)","SRID=27700;POINT(430066.65 319345.43)"
1010012101,Lincolnshire Co-operative,The Co-operative Food,Co-op Woodville Road Food Store,88 Woodville Road,,Boston,Hubbert's Bridge,PE21 8BB,-0.0397073162102589,52.9738392614875,531729.56,343629.39,Rooftop geocoded by Geolytix,,"< 3,013 ft2 (280m2)","SRID=27700;POINT(531729.56 343629.39)"
1010012025,Lincolnshire Co-operative,The Co-operative Food,Co-op Argyle Street Food Store,52-60 Argyle Street,,Boston,Hubbert's Bridge,PE21 8PH,-0.0388281333929027,52.9810390295037,531766.7,344431.81,Rooftop geocoded by Geolytix,,"< 3,013 ft2 (280m2)","SRID=27700;POINT(531766.7 344431.81)"
1010010566,Waitrose,Little Waitrose Shell,Waitrose Broxbourne,High Road,,Cheshunt,Turnford,EN10 6PY,-0.0221121763811161,51.7379704637473,536668.87,206213.32,Rooftop geocoded by Geolytix,,"< 3,013 ft2 (280m2)","SRID=27700;POINT(536668.87 206213.32)"
1010006961,Lidl,Lidl,Lidl Antrim North Antrim,Junction One Retail Park,Ballymena Road,Antrim,Antrim North,BT41 4LL,-6.22953570481801,54.7292016277042,127795.98,545348.02,Rooftop geocoded by Geolytix,,"3,013 < 15,069 ft2 (280 < 1,400 m2)","SRID=27700;POINT(127795.98 545348.02)"
1010005911,Tesco,Tesco Express,Tesco Wolverhampton Willenhall Road Express,5-7 Willenhall Road,,Wolverhampton,Moseley,WV1 2HG,-2.10737015619324,52.5838899145258,392822.12,298458.96,Rooftop geocoded by Geolytix,,"< 3,013 ft2 (280m2)","SRID=27700;POINT(392822.12 298458.96)"
1010001975,Marks and Spencer,Marks and Spencer Simply Food,M&S Princes Risborough SF,2 Horns Lane,,Princes Risborough,,HP27 0AN,-0.829747037416147,51.7227772059345,480931.61,203320.58,Rooftop geocoded by Geolytix,,"3,013 < 15,069 ft2 (280 < 1,400 m2)","SRID=27700;POINT(480931.61 203320.58)"
1010013881,Waitrose,Waitrose MSA,Waitrose at Membury West,"M4, Junction 14/15",,Lambourn Woodlands,,RG17 7TZ,-1.55728412647506,51.4812591357167,430840.18,175904.32,Rooftop geocoded by Geolytix,,"3,013 < 15,069 ft2 (280 < 1,400 m2)","SRID=27700;POINT(430840.18 175904.32)"
1010000769,Asda,Asda Superstore,Asda Boston Superstore,Lister Way,,Boston,Hubbert's Bridge,PE21 8EQ,-0.0318534191834963,52.9798654599015,532238.5,344314.1,Rooftop geocoded by Geolytix,,"30,138 ft2 > (2,800 m2)","SRID=27700;POINT(532238.5 344314.1)"
1010002781,Sainsburys,Sainsburys,Sainsburys Castle Vale,Castle Vale Retail Park,Chester Road,Birmingham,Tyburn,B35 6HB,-1.79635647542263,52.5176903127733,413915.84,291109.14,Rooftop geocoded by Geolytix,,"30,138 ft2 > (2,800 m2)","SRID=27700;POINT(413915.84 291109.14)"
1010005565,Tesco,Tesco Express,Tesco Smithies Carlton Road Express,Carlton Road,,Barnsley,Athersley South,S71 1UH,-1.46668015213356,53.5708113074333,435415.84,408377.19,Rooftop geocoded by Geolytix,,"< 3,013 ft2 (280m2)","SRID=27700;POINT(435415.84 408377.19)"
1010009924,The Co-operative Group,The Co-operative Food,Co-op New Lodge,Wakefield Road,,Barnsley,Athersley South,S71 3TY,-1.47935468501688,53.5789207189329,434569.9,409273.19,Rooftop geocoded by Geolytix,,"< 3,013 ft2 (280m2)","SRID=27700;POINT(434569.9 409273.19)"
1010011230,Iceland,Iceland,Iceland Hilton Aberdeen,461-475 Great Northern Road,,Aberdeen,Hilton,AB24 2BD,-2.12775782038249,57.1710854568295,392373.38,808923.22,Rooftop geocoded by Geolytix,,"3,013 < 15,069 ft2 (280 < 1,400 m2)","SRID=27700;POINT(392373.38 808923.22)"
1010007677,The Co-operative Group,The Co-operative Food,Co-op Stotfold,High Street,Mulberry Close Stotfold,Stotfold,,SG5 4NL,-0.226898719461297,52.013584458189,521783.251,236501.1839,Rooftop geocoded by Geolytix,,"3,013 < 15,069 ft2 (280 < 1,400 m2)","SRID=27700;POINT(521783.251 236501.1839)"
1010000073,Aldi,Aldi,Aldi Rhydyfelin Pontypridd,Unit 2 Midway Retail Park,,Pontypridd,Rhydyfelin,CF37 5BL,-3.29000415665911,51.5785711685562,310707.08,187423.04,Rooftop geocoded by Geolytix,,"3,013 < 15,069 ft2 (280 < 1,400 m2)","SRID=27700;POINT(310707.08 187423.04)"
1010014062,Iceland,The Food Warehouse,Iceland Midway Food Warehouse,Unit 4B Midway Retail Park,,Pontypridd,Rhydyfelin,CF37 5BL,-3.29046170000238,51.579031351754,310676.2796,187474.7773,Rooftop geocoded by Geolytix,,"3,013 < 15,069 ft2 (280 < 1,400 m2)","SRID=27700;POINT(310676.2796 187474.7773)"
1010012430,Midcounties Co-operative,The Co-operative Food,Co-op Croughton,Park End,,Croughton,,NN13 5LX,-1.2027987708379,51.9972160198753,454829.71,233496.67,Rooftop geocoded by Geolytix,,"< 3,013 ft2 (280m2)","SRID=27700;POINT(454829.71 233496.67)"
1010006296,Tesco,Tesco Extra,Tesco Carmarthen Extra,Morfa Lane,,Carmarthen,Carmarthen,SA31 3AX,-4.31773648564396,51.8533261656617,240469,219733,Rooftop geocoded by Geolytix,,"30,138 ft2 > (2,800 m2)","SRID=27700;POINT(240469 219733)"
1010014256,Iceland,The Food Warehouse,Iceland Stechford Food Warehouse,Unit E Stechford Retail Park,,Birmingham,Stetchford,B33 9AN,-1.80767501287607,52.4866322690725,413156.9777,287652.2802,Rooftop geocoded by Geolytix,,"3,013 < 15,069 ft2 (280 < 1,400 m2)","SRID=27700;POINT(413156.9777 287652.2802)"
1010012510,Midcounties Co-operative,The Co-operative Food,Co-op Oakengates Food,Limes Walk,Oakengates,Telford,Overdale,TF2 6EP,-2.45051087598581,52.6955588384069,369650.11,310970.7,Rooftop geocoded by Geolytix,,"3,013 < 15,069 ft2 (280 < 1,400 m2)","SRID=27700;POINT(369650.11 310970.7)"
1010001512,Marks and Spencer,Marks and Spencer,M&S Brent Cross,Brent Cross Shopping Centre,Hendon,London,Brent Cross,NW4 3FE,-0.225068127876015,51.5759285736152,523093.87,187832.66,Rooftop geocoded by Geolytix,,"3,013 < 15,069 ft2 (280 < 1,400 m2)","SRID=27700;POINT(523093.87 187832.66)"
1010014136,Tesco,Tesco Express,Tesco Sheffield Beighton Express,44 High Street,,Sheffield,Mosborough,S20 1EA,-1.33508641400785,53.3472389442843,444362.1748,383577.717,Rooftop geocoded by Geolytix,,"< 3,013 ft2 (280m2)","SRID=27700;POINT(444362.1748 383577.717)"
1010013495,Marks and Spencer,Marks and Spencer Simply Food,M&S Hartlepool Simply Food,Unit 2 Anchor Retail Park,,Hartlepool,Marina,TS24 0XR,-1.21099137454685,54.6907047524181,450958.14,533136.95,Rooftop geocoded by Geolytix,20150617,"3,013 < 15,069 ft2 (280 < 1,400 m2)","SRID=27700;POINT(450958.14 533136.95)"
1010009654,The Co-operative Group,The Co-operative Food,Co-op Manvers Road,98 Manvers Road,Beighton,Sheffield,Mosborough,S20 1AY,-1.34159180647575,53.3490937291192,443927.2,383780.05,Rooftop geocoded by Geolytix,,"< 3,013 ft2 (280m2)","SRID=27700;POINT(443927.2 383780.05)"
1010015150,Marks and Spencer,Marks and Spencer Foodhall,M&S Launceston Foodhall,Launceston Retail Park,Hurdon Road,Launceston,Scarne Industrial Estate,PL15 9DJ,-4.35784504510606,50.6274093282889,233329.9685,83510.36158,Rooftop geocoded by Geolytix,20179999,"3,013 < 15,069 ft2 (280 < 1,400 m2)","SRID=27700;POINT(233329.9685 83510.36158)"
1010004552,Tesco,Tesco Express,Tesco Shore Road Express,Shore Road,,Poole,Canford Cliffs,BH13 7PW,-1.93135789708079,50.6958383018936,404944.46,88468.08,Rooftop geocoded by Geolytix,,"< 3,013 ft2 (280m2)","SRID=27700;POINT(404944.46 88468.08)"
1010013799,Aldi,Aldi,Aldi Pontypandy Caerphilly,Units 12-13 Gallagher Retail Park,,Caerphilly,Pontypandy,CF83 3GX,-3.2162876488283,51.590737119677,315837.5268,188688.4873,Rooftop geocoded by Geolytix,20151029,"3,013 < 15,069 ft2 (280 < 1,400 m2)","SRID=27700;POINT(315837.5268 188688.4873)"
1010001916,Marks and Spencer,Marks and Spencer Simply Food,M&S Armagh SF,Unit 2 Spires Retail Park,Moy Park,Armagh City,Armagh West,BT61 8DB,-6.66029832819561,54.356814915737,97333.94,505715,Rooftop geocoded by Geolytix,,"3,013 < 15,069 ft2 (280 < 1,400 m2)","SRID=27700;POINT(97333.94 505715)"
1010007560,Makro,Makro,Makro Leicester,Centurion Way,Meridian Business Park,Leicester,Thorpe Astley,LE19 1WG,-1.19441151965744,52.6071284200645,454651.02,301343.02,Rooftop geocoded by Geolytix,,"30,138 ft2 > (2,800 m2)","SRID=27700;POINT(454651.02 301343.02)"
1010002513,Morrisons,Morrisons,Morrisons Mosborough Sheffield,1 Oxclose Park Road North,Halfway,Sheffield,Mosborough,S20 8GN,-1.34298473550936,53.3251187784253,443859,381112,Rooftop geocoded by Geolytix,,"30,138 ft2 > (2,800 m2)","SRID=27700;POINT(443859 381112)"
1010000846,Asda,Asda Superstore,Asda Darlaston Superstore,St Lawrence Way,Darlaston,West Bromwich,Darlaston,WS10 8UZ,-2.0357956594449,52.5683245051424,397670.84,296722.68,Rooftop geocoded by Geolytix,,"30,138 ft2 > (2,800 m2)","SRID=27700;POINT(397670.84 296722.68)"
1010002604,Morrisons,Morrisons,Morrisons Wilderspool Warrington,Greenalls Avenue,,Warrington,Wilderspool,WA4 6RN,-2.58571483306273,53.3735592831949,361129,386460,Rooftop geocoded by Geolytix,,"30,138 ft2 > (2,800 m2)","SRID=27700;POINT(361129 386460)"
1010006968,Lidl,Lidl,Lidl Armagh West Armagh City,Unit 5 Spire Retail Park,Moy Road,Armagh City,Armagh West,BT61 8DB,-6.6597470752873,54.3564403907131,97366.97,505671,Rooftop geocoded by Geolytix,,"3,013 < 15,069 ft2 (280 < 1,400 m2)","SRID=27700;POINT(97366.97 505671)"
1010014327,Iceland,Iceland,Iceland Armagh,Unit 1 The Spires Retail Park,Moy Road,Armagh City,Armagh West,BT61 8DB,-6.66000307695008,54.3566377882957,97351.8036,505694.0421,Rooftop geocoded by Geolytix,,"3,013 < 15,069 ft2 (280 < 1,400 m2)","SRID=27700;POINT(97351.8036 505694.0421)"
1010000965,Asda,Asda Supermarket,Asda Dover Supermarket,Uni t1 Charlton Green,,Dover,Dover Town Centre,CT16 2QH,1.30664642352802,51.1303789103174,631451.24,141988.55,Rooftop geocoded by Geolytix,,"3,013 < 15,069 ft2 (280 < 1,400 m2)","SRID=27700;POINT(631451.24 141988.55)"
1010012900,Farmfoods,Farmfoods,Farmfoods Dover Town Centre Dover,Unit 3 Charlton Green,,Dover,Dover Town Centre,CT16 2QH,1.30634078801707,51.1305790679481,631428.86,142009.84,Rooftop geocoded by Geolytix,,"3,013 < 15,069 ft2 (280 < 1,400 m2)","SRID=27700;POINT(631428.86 142009.84)"
1010014731,Scottish Midland Co-operative,The Co-operative Food,Co-op Barlanark,323 Hallhill Road,,Glasgow,Springboig,G33 4RJ,-4.1351802643127,55.8579670474455,266451.3882,664814.8114,Rooftop geocoded by Geolytix,,"3,013 < 15,069 ft2 (280 < 1,400 m2)","SRID=27700;POINT(266451.3882 664814.8114)"
1010015031,Marks and Spencer,Marks and Spencer Foodhall,M&S Aberdeen Bridge of Don Foodhall,Denmore Road,,Bridge of Don,Bridge of Don,AB23 8JW,-2.09142821488848,57.2016978040132,394574.8359,812327.5058,Rooftop geocoded by Geolytix,20171206,"3,013 < 15,069 ft2 (280 < 1,400 m2)","SRID=27700;POINT(394574.8359 812327.5058)"
1010012977,Farmfoods,Farmfoods,Farmfoods Langley Mill Heanor,Unit 5&6 Acorn Centre,Station Road,Heanor,Langley Mill,NG16 4AF,-1.33016771844138,53.0193657853032,445030.87,347106.08,Rooftop geocoded by Geolytix,,"3,013 < 15,069 ft2 (280 < 1,400 m2)","SRID=27700;POINT(445030.87 347106.08)"
1010000198,Aldi,Aldi,Aldi Grovehill Beverley,Swinemoor Lane,,Beverley,Grovehill,HU17 0JX,-0.407118048612536,53.8445093598889,504898,439872.22,Rooftop geocoded by Geolytix,,"3,013 < 15,069 ft2 (280 < 1,400 m2)","SRID=27700;POINT(504898 439872.22)"
1010013868,Lidl,Lidl,Lidl Eaton Socon,21 Great North Road,,Eaton Socon,,PE19 8EN,-0.290655513807383,52.2086214673629,516897.21,258087.63,Rooftop geocoded by Geolytix,20169999,"3,013 < 15,069 ft2 (280 < 1,400 m2)","SRID=27700;POINT(516897.21 258087.63)"
1010013946,Aldi,Aldi,Aldi Eaton Socon,Howard Road,,Eaton Socon,,PE19 8EX,-0.289136857947676,52.2106950767076,516995.53,258320.7,Rooftop geocoded by Geolytix,20160602,"3,013 < 15,069 ft2 (280 < 1,400 m2)","SRID=27700;POINT(516995.53 258320.7)"
1010007307,Lidl,Lidl,Lidl Honicknowle Plymouth,Transit Way,,Plymouth,Honicknowle,PL5 3TW,-4.15166181122638,50.4116579554685,247215.85,59078.64,Rooftop geocoded by Geolytix,,"3,013 < 15,069 ft2 (280 < 1,400 m2)","SRID=27700;POINT(247215.85 59078.64)"
1010004426,Tesco,Tesco,Tesco Feltham Dukes Green Superstore,Dukes Green Avenue,Feltham,London,North Feltham,TW14 0LH,-0.414983685772985,51.4593056507501,510215,174561,Rooftop geocoded by Geolytix,,"30,138 ft2 > (2,800 m2)","SRID=27700;POINT(510215 174561)"
1010002464,Morrisons,Morrisons,Morrisons Belfield Rochdale,285 Kingsway,,Rochdale,Belfield,OL16 4AT,-2.13560441056738,53.6121515444721,391126,412853,Rooftop geocoded by Geolytix,,"30,138 ft2 > (2,800 m2)","SRID=27700;POINT(391126 412853)"
1010000978,Asda,Asda Supermarket,Asda Scunthorpe Carlton Street Supermarket,Carlton Street,,Scunthorpe,Central Scunthorpe,DN15 6TA,-0.641039943762182,53.5904754996835,490048.87,411291.07,Rooftop geocoded by Geolytix,,"3,013 < 15,069 ft2 (280 < 1,400 m2)","SRID=27700;POINT(490048.87 411291.07)"
1010000192,Aldi,Aldi,Aldi Adeyfield Hemel Hempstead,Redbourn Road,,Hemel Hempstead,Adeyfield,HP2 7BA,-0.448107209377068,51.7697983561372,507180.73,209041.46,Rooftop geocoded by Geolytix,,"3,013 < 15,069 ft2 (280 < 1,400 m2)","SRID=27700;POINT(507180.73 209041.46)"
1010013874,Lidl,Lidl,Lidl North Newry Newry,5a Damolly Retail Park,,Newry,North Newry,BT35 6PR,-6.34966841418259,54.1928226051709,116375.795712439,486193.126134894,Rooftop geocoded by Geolytix,,"3,013 < 15,069 ft2 (280 < 1,400 m2)","SRID=27700;POINT(116375.795712439 486193.126134894)"
1010000188,Aldi,Aldi,Aldi Alton,Unit 2 Alton Retail Park,,"Alton, Hampshire",,GU34 2QS,-0.956643278776107,51.1573946203707,473061.72,140310.71,Rooftop geocoded by Geolytix,,"3,013 < 15,069 ft2 (280 < 1,400 m2)","SRID=27700;POINT(473061.72 140310.71)"
1010014282,Iceland,Iceland,Iceland Coulby Newham Iceland,Unit 11 Parkway Shopping Centre,,Middlesbrough,Coulby Newham,TS8 0TJ,-1.21570592748634,54.5247756309854,450860.2157,514670.3392,Rooftop geocoded by Geolytix,,"3,013 < 15,069 ft2 (280 < 1,400 m2)","SRID=27700;POINT(450860.2157 514670.3392)"
1010009660,The Co-operative Group,The Co-operative Food,Co-op Livingston - Craigshill,Craigshill Shopping Centre,The Mall,Livingston,Craigshill,EH54 5DZ,-3.49677584511935,55.8971016484935,306501.0885,668121.2514,Rooftop geocoded by Geolytix,,"3,013 < 15,069 ft2 (280 < 1,400 m2)","SRID=27700;POINT(306501.0885 668121.2514)"
1010009478,The Co-operative Group,The Co-operative Food,Co-op Castlederg,1-3 High Street,,Castlederg,,BT81 7AB,-7.5923872958007,54.7092200242217,39958.60488,549277.9784,Rooftop geocoded by Geolytix,,"3,013 < 15,069 ft2 (280 < 1,400 m2)","SRID=27700;POINT(39958.60488 549277.9784)"
1010004605,Tesco,Tesco Express,Tesco Upper Shoreham Express,225 Upper Shoreham Road,Shoreham By Sea,Shoreham,Shoreham,BN43 6BE,-0.264018490804865,50.8396021749414,522328.81,105888.31,Rooftop geocoded by Geolytix,,"< 3,013 ft2 (280m2)","SRID=27700;POINT(522328.81 105888.31)"
1010008714,The Co-operative Group,The Co-operative Food,Co-op Upper Shoreham Rd,2-3 Royal George Parade,Upper Shoreham Road,Shoreham,Shoreham,BN43 6TB,-0.250153680596512,50.841145615954,523300.9215,106082.9589,Rooftop geocoded by Geolytix,,"< 3,013 ft2 (280m2)","SRID=27700;POINT(523300.9215 106082.9589)"
1010004076,Tesco,Tesco,Tesco Workington Superstore,New Bridge Road,,Workington,Workington,CA14 3YG,-3.55408133076184,54.6482872251891,299819,529241,Rooftop geocoded by Geolytix,,"15,069 < 30,138 ft2 (1,400 < 2,800 m2)","SRID=27700;POINT(299819 529241)"
1010007539,Costco,Costco,Costco Oldham,The Broadway,,Oldham,Werneth,OL9 8AU,-2.15932854861088,53.5291731155705,389535.74,403624.44,Rooftop geocoded by Geolytix,,"30,138 ft2 > (2,800 m2)","SRID=27700;POINT(389535.74 403624.44)"
1010014504,The Co-operative Group,The Co-operative Food,Co-op Rhos-on-Sea - Llandudno Road,35 Llandudno Road,,Colwyn Bay,Rhos-on-Sea,LL28 4EX,-3.75604701688998,53.3084493177466,283091.7565,380494.8185,Rooftop geocoded by Geolytix,,"3,013 < 15,069 ft2 (280 < 1,400 m2)","SRID=27700;POINT(283091.7565 380494.8185)"
1010003063,Sainsburys,Sainsburys,Sainsburys Dunstable,2-8 Luton Road,,Dunstable,Beecroft,LU5 4RF,-0.512443487835851,51.8890102268139,502471,222207,Rooftop geocoded by Geolytix,,"30,138 ft2 > (2,800 m2)","SRID=27700;POINT(502471 222207)"
1010001932,Marks and Spencer,Marks and Spencer Simply Food,M&S Dartford SF,Unit 3 Prospect Place Park,,Dartford,Central Dartford,DA1 1DY,0.216289828991927,51.4480914246094,554106.04,174452.11,Rooftop geocoded by Geolytix,,"3,013 < 15,069 ft2 (280 < 1,400 m2)","SRID=27700;POINT(554106.04 174452.11)"
1010015311,The Co-operative Group,The Co-operative Food,Co-op Portman Square,12 Baker Street,,London,Marylebone,W1U 3AA,-0.154748430151201,51.516758988221,528132.412186293,181373.356521508,Rooftop geocoded by Geolytix,20181199,"< 3,013 ft2 (280m2)","SRID=27700;POINT(528132.412186293 181373.356521508)"
1010009354,The Co-operative Group,The Co-operative Food,Co-op Baddeley Green,964 Leek New Road,Baddeley Green,Stoke-on-Trent,Milton,ST2 7HG,-2.13672207031488,53.0594728534115,390934.1382,351366.9375,Rooftop geocoded by Geolytix,,"< 3,013 ft2 (280m2)","SRID=27700;POINT(390934.1382 351366.9375)"
1010006487,Tesco,Tesco Metro,Tesco Regent Street Metro,17-25 Regent Street,,London,St James',SW1Y 4LR,-0.1345294560884,51.5088700101785,529557.59,180531.64,Rooftop geocoded by Geolytix,,"3,013 < 15,069 ft2 (280 < 1,400 m2)","SRID=27700;POINT(529557.59 180531.64)"
1010002070,Marks and Spencer,Marks and Spencer Simply Food,M&S Green Park SF,78 Piccadilly,Devonshire House,London,Mayfair,W1J 8AQ,-0.142843697153384,51.5071332243595,528985.54,180323.83,Rooftop geocoded by Geolytix,,"3,013 < 15,069 ft2 (280 < 1,400 m2)","SRID=27700;POINT(528985.54 180323.83)"
1010003950,Sainsburys,Sainsburys Local,Sainsburys Mayfair,38 Stratton Street,,London,Mayfair,W1J 8LT,-0.143443497044734,51.5080536619421,528941.32,180425.13,Rooftop geocoded by Geolytix,,"3,013 < 15,069 ft2 (280 < 1,400 m2)","SRID=27700;POINT(528941.32 180425.13)"
1010004982,Tesco,Tesco Express,Tesco Baillieston Express,9 Glasgow Road,Baillieston,Glasgow,Baillieston,G69 6JT,-4.11600444182938,55.8499400569567,267624.14,663884.78,Rooftop geocoded by Geolytix,,"< 3,013 ft2 (280m2)","SRID=27700;POINT(267624.14 663884.78)"
1010005222,Tesco,Tesco Express,Tesco Manchester Quay Street Express,"Unit 2, Oversea House",11 Quay Street,Manchester,Central Manchester,M3 3BB,-2.25029550564814,53.4782435653394,383485.73,397975.67,Rooftop geocoded by Geolytix,,"< 3,013 ft2 (280m2)","SRID=27700;POINT(383485.73 397975.67)"
1010005225,Tesco,Tesco Express,Tesco Church Manchester Express,12-24 Church Street,,Manchester,Central Manchester,M4 1PN,-2.23803533841064,53.4828799879507,384301.14,398488.7,Rooftop geocoded by Geolytix,,"< 3,013 ft2 (280m2)","SRID=27700;POINT(384301.14 398488.7)"
1010005228,Tesco,Tesco Express,Tesco Piccadilly Express,"Unit 3, 1 Portland Street",Piccadilly,Manchester,Central Manchester,M60 1HR,-2.23452756830633,53.4804257114548,384533.02,398214.88,Rooftop geocoded by Geolytix,,"< 3,013 ft2 (280m2)","SRID=27700;POINT(384533.02 398214.88)"
1010007717,The Co-operative Group,The Co-operative Food,Co-op Shoreham - Ham Road,Ham Road,,Shoreham,Shoreham,BN43 6PA,-0.271480751667641,50.8334600262815,521819.3934,105193.0234,Rooftop geocoded by Geolytix,,"15,069 < 30,138 ft2 (1,400 < 2,800 m2)","SRID=27700;POINT(521819.3934 105193.0234)"
1010002002,Marks and Spencer,Marks and Spencer Simply Food,M&S Piccadilly Gardens Manchester SF,Unit 6a Piccadilly Plaza,,Manchester,Central Manchester,M1 4AJ,-2.23813620796271,53.4800947136812,384293.41,398178.85,Rooftop geocoded by Geolytix,,"< 3,013 ft2 (280m2)","SRID=27700;POINT(384293.41 398178.85)"
1010003640,Sainsburys,Sainsburys Local,Sainsburys Whitworth Street Local,51 Whitworth Street West,,Manchester,Central Manchester,M1 5EA,-2.24171949284773,53.4747080971003,384053.57,397580.37,Rooftop geocoded by Geolytix,,"< 3,013 ft2 (280m2)","SRID=27700;POINT(384053.57 397580.37)"
1010003648,Sainsburys,Sainsburys Local,Sainsburys Deansgate Local,Deansgate,,Manchester,Central Manchester,M3 4BQ,-2.24812943246028,53.481007993726,383630.56,398282.72,Rooftop geocoded by Geolytix,,"< 3,013 ft2 (280m2)","SRID=27700;POINT(383630.56 398282.72)"
1010005979,Tesco,Tesco Express Esso,Tesco Waltham Cross Bullsmoor Lane Esso Express,3 Bullsmoor Lane,,London,Freezy Water,EN8 7RS,-0.0344498596172591,51.6805038844365,535989.15,199799.7,Rooftop geocoded by Geolytix,,"< 3,013 ft2 (280m2)","SRID=27700;POINT(535989.15 199799.7)"
1010003642,Sainsburys,Sainsburys Local,Sainsburys Mosley Street Local,58 Mosley Street,,Manchester,Central Manchester,M2 3HZ,-2.24050965483348,53.4797079463048,384135.75,398136.35,Rooftop geocoded by Geolytix,,"< 3,013 ft2 (280m2)","SRID=27700;POINT(384135.75 398136.35)"
1010003647,Sainsburys,Sainsburys Local,Sainsburys Overseas House Local,Overseas House,Quay Street,Manchester,Central Manchester,M3 3HN,-2.24991936387794,53.4782080399281,383510.68,397971.63,Rooftop geocoded by Geolytix,,"< 3,013 ft2 (280m2)","SRID=27700;POINT(383510.68 397971.63)"
1010002703,Morrisons,Morrisons,Morrisons Manchester,19-25 Piccadilly Gardens,,Manchester,Central Manchester,M1 1LU,-2.23658343925094,53.4815555488158,384397,398341.03,Rooftop geocoded by Geolytix,,"3,013 < 15,069 ft2 (280 < 1,400 m2)","SRID=27700;POINT(384397 398341.03)"
1010000277,Aldi,Aldi,Aldi Manchester Arndale Manchester,Manchester Arndale,67-71 Market Street,Manchester,Central Manchester,M1 1WR,-2.24061754253924,53.4827940953563,384129.75,398479.72,Rooftop geocoded by Geolytix,,"3,013 < 15,069 ft2 (280 < 1,400 m2)","SRID=27700;POINT(384129.75 398479.72)"
1010002303,Morrisons,Morrisons,Morrisons Baillieston Glasgow,Ravenswood Road,Baillieston,Glasgow,Baillieston,G69 7HU,-4.10569874352677,55.8510535574857,268273,663989,Rooftop geocoded by Geolytix,,"15,069 < 30,138 ft2 (1,400 < 2,800 m2)","SRID=27700;POINT(268273 663989)"
1010000730,Asda,Asda Superstore,Asda Chatham Superstore,387 Maidstone Road,,Chatham,Walderslade,ME5 9SE,0.508973706988764,51.3449533202626,574834.5,163640.16,Rooftop geocoded by Geolytix,,"30,138 ft2 > (2,800 m2)","SRID=27700;POINT(574834.5 163640.16)"
1010015309,The Co-operative Group,The Co-operative Food,Co-op Spinningfields Manchester,Manchester House,Bridge Street,Manchester,Central Manchester,M3 3BZ,-2.25080734487436,53.4810896901934,383452.875211965,398292.431558548,Rooftop geocoded by Geolytix,20181199,"3,013 < 15,069 ft2 (280 < 1,400 m2)","SRID=27700;POINT(383452.875211965 398292.431558548)"
1010008615,The Co-operative Group,The Co-operative Food,Co-op Manchester - High Street,38 High Street,,Manchester,Central Manchester,M4 1QB,-2.23866496266209,53.4833399788481,384259.529,398540.0156,Rooftop geocoded by Geolytix,,"3,013 < 15,069 ft2 (280 < 1,400 m2)","SRID=27700;POINT(384259.529 398540.0156)"
1010007910,The Co-operative Group,The Co-operative Food,Co-op Chatham - Maritime Way,Ships and Trades Offices,Maritime Way,Chatham,Chatham Docks,ME4 3ER,0.536341693194784,51.4022826423156,576519.7078,170080.1805,Rooftop geocoded by Geolytix,,"< 3,013 ft2 (280m2)","SRID=27700;POINT(576519.7078 170080.1805)"
1010014859,Marks and Spencer,Marks and Spencer Foodhall,M&S Manchester Spinningfields Foodhall,Spinningfields,,Manchester,Central Manchester,M3 3EB,-2.2525863021764,53.4798715444472,383334.3362,398157.3255,Rooftop geocoded by Geolytix,,"3,013 < 15,069 ft2 (280 < 1,400 m2)","SRID=27700;POINT(383334.3362 398157.3255)"
1010012988,Farmfoods,Farmfoods,Farmfoods Croxteth Park Liverpool,Lower House Lane,,Liverpool,Dog and Gun,L11 2SF,-2.91171503366311,53.4490261522679,339547.51,395083.14,Rooftop geocoded by Geolytix,,"3,013 < 15,069 ft2 (280 < 1,400 m2)","SRID=27700;POINT(339547.51 395083.14)"
1010000393,Aldi,Aldi,Aldi Corporation Street Preston,Corporation Street,,Preston,Preston City Centre,PR1 2UZ,-2.70642030620083,53.7591338758126,353524.1,429429.11,Rooftop geocoded by Geolytix,,"3,013 < 15,069 ft2 (280 < 1,400 m2)","SRID=27700;POINT(353524.1 429429.11)"
1010005082,Tesco,Tesco Express,Tesco Duke Street Express,283 Duke Street,,Ipswich,South Ipswich,IP3 0BF,1.16634083136922,52.0500766217278,617204.78,243808.15,Rooftop geocoded by Geolytix,,"< 3,013 ft2 (280m2)","SRID=27700;POINT(617204.78 243808.15)"
1010001498,Marks and Spencer,Marks and Spencer,M&S Kenton Bar,Kingston Retail Park,Kenton Bar,Newcastle Upon Tyne,Kingston Park,NE3 2FP,-1.66807201046246,55.0138889672274,421324.27,568865.46,Rooftop geocoded by Geolytix,,"3,013 < 15,069 ft2 (280 < 1,400 m2)","SRID=27700;POINT(421324.27 568865.46)"
1010010975,Iceland,Iceland,Iceland Devonport,9-11 Marlborough Street,,Plymouth,Devonport,PL1 4AE,-4.17903434508519,50.3741763255838,245148.97,54968.09,Rooftop geocoded by Geolytix,,"3,013 < 15,069 ft2 (280 < 1,400 m2)","SRID=27700;POINT(245148.97 54968.09)"
1010014228,Marks and Spencer,Marks and Spencer Foodhall,M&S Corby Foodhall,Courier Road,,Corby,Earlstrees Industry,NN17 5DT,-0.68179562164597,52.4963987413184,489588.7098,289537.7426,Rooftop geocoded by Geolytix,20161199,"3,013 < 15,069 ft2 (280 < 1,400 m2)","SRID=27700;POINT(489588.7098 289537.7426)"
1010000138,Aldi,Aldi,Aldi Number One Consett,Front Street,,Consett,Number One,DH8 5RE,-1.83427706701392,54.8496042267305,410738.98,550545.93,Rooftop geocoded by Geolytix,,"3,013 < 15,069 ft2 (280 < 1,400 m2)","SRID=27700;POINT(410738.98 550545.93)"
1010000840,Asda,Asda Superstore,Asda Runcorn Superstore,West Lane,,Runcorn,Grange,WA7 2PY,-2.7013506334241,53.3291262852009,353387.13,381586.24,Rooftop geocoded by Geolytix,,"30,138 ft2 > (2,800 m2)","SRID=27700;POINT(353387.13 381586.24)"
1010007938,The Co-operative Group,The Co-operative Food,Co-op St Davids Park,St. Davids Park,Ewloe,Connah's Quay,Hawarden,CH5 3XN,-3.05841317730919,53.1864901803493,329372.2908,366011.7726,Rooftop geocoded by Geolytix,,"< 3,013 ft2 (280m2)","SRID=27700;POINT(329372.2908 366011.7726)"
1010005912,Tesco,Tesco Express,Tesco Willenhall Road Express,Willenhall Road,Bilston,Wolverhampton,Bilston,WV14 6NW,-2.06564934180628,52.571237748195,395647.66,297048.17,Rooftop geocoded by Geolytix,,"< 3,013 ft2 (280m2)","SRID=27700;POINT(395647.66 297048.17)"
1010009807,The Co-operative Group,The Co-operative Food,Co-op Leyburn,11 Market Place,,Leyburn,,DL8 5BG,-1.82953285550366,54.3092714874857,411189.1557,490421.4681,Rooftop geocoded by Geolytix,,"3,013 < 15,069 ft2 (280 < 1,400 m2)","SRID=27700;POINT(411189.1557 490421.4681)"
1010008751,The Co-operative Group,The Co-operative Food,Co-op Ballieston,21 Barrachnie Road,Ballieston,Glasgow,Baillieston,G69 6HB,-4.13293429447692,55.8508887378757,266567.6662,664022.8763,Rooftop geocoded by Geolytix,,"3,013 < 15,069 ft2 (280 < 1,400 m2)","SRID=27700;POINT(266567.6662 664022.8763)"
1010010024,The Co-operative Group,The Co-operative Food,Co-op Barrachnie,171/177 Baillieston Road,Barrachnie,Glasgow,Baillieston,G32 0TN,-4.13374858770874,55.850102827124,266514,663937,Rooftop geocoded by Geolytix,,"3,013 < 15,069 ft2 (280 < 1,400 m2)","SRID=27700;POINT(266514 663937)"
1010012132,East of England Co-operative,The Co-operative Food,Co-op Prettygate Foodstore,96 The Commons,,Colchester,Shrub End,CO3 4NW,0.865389278494897,51.8806045164268,597316.52,224107.16,Rooftop geocoded by Geolytix,,"3,013 < 15,069 ft2 (280 < 1,400 m2)","SRID=27700;POINT(597316.52 224107.16)"
1010014267,Iceland,The Food Warehouse,Iceland Kingston Park Food Warehouse,Kingston Retail Park,,Newcastle Upon Tyne,Kingston Park,NE3 2ES,-1.66708980890086,55.0108890936263,421388.6677,568531.9267,Rooftop geocoded by Geolytix,20170399,"3,013 < 15,069 ft2 (280 < 1,400 m2)","SRID=27700;POINT(421388.6677 568531.9267)"
1010002632,Morrisons,Morrisons,Morrisons Bilston Wolverhampton,Black Country Route,Bilston,Wolverhampton,Bilston,WV14 0DZ,-2.07557267715604,52.5635983677543,394974.21,296199.05,Rooftop geocoded by Geolytix,,"30,138 ft2 > (2,800 m2)","SRID=27700;POINT(394974.21 296199.05)"
1010002264,Morrisons,Morrisons,Morrisons Hexthorpe Doncaster,Doncaster,1a Watervole Way,Doncaster,Hexthorpe,DN4 5JP,-1.12770137314474,53.4989913884984,457961.6361,400608.6048,Rooftop geocoded by Geolytix,,"30,138 ft2 > (2,800 m2)","SRID=27700;POINT(457961.6361 400608.6048)"
1010001480,Marks and Spencer,Marks and Spencer,M&S Pudsey,The Owlcotes Centre,Varley Street,Leeds,Farsley,LS28 6AR,-1.67059017247984,53.802703864359,421792.81,434095.2,Rooftop geocoded by Geolytix,,"15,069 < 30,138 ft2 (1,400 < 2,800 m2)","SRID=27700;POINT(421792.81 434095.2)"
1010010563,Marks and Spencer,Marks and Spencer Hospital,M&S Royal Surrey Hospital,Royal Surrey Hospital,Egerton Road,Guildford,Park Barn,GU2 7XX,-0.607827169736387,51.240841793739,497278.92,149994.13,Rooftop geocoded by Geolytix,,"< 3,013 ft2 (280m2)","SRID=27700;POINT(497278.92 149994.13)"
1010001410,Marks and Spencer,Marks and Spencer,M&S Kidderminster,Units 18-19 Weavers Wharf,Lower Mill Street,Kidderminster,Central Kidderminster,DY11 6UU,-2.25060670366127,52.3876101153172,383041.2,276649.88,Rooftop geocoded by Geolytix,,"3,013 < 15,069 ft2 (280 < 1,400 m2)","SRID=27700;POINT(383041.2 276649.88)"
1010002099,Marks and Spencer,Marks and Spencer Travel SF,M&S Guildford Rail SF,Guildford Station,,Guildford,Central Guildford,GU1 4UT,-0.580443505466834,51.2367076599263,499199.27,149570.97,Rooftop geocoded by Geolytix,,"< 3,013 ft2 (280m2)","SRID=27700;POINT(499199.27 149570.97)"
1010009130,The Co-operative Group,The Co-operative Food,Co-op Farnborough Park,36-40A Woburn Avenue,,Farnborough,Central Farnborough,GU14 7EF,-0.739561251338861,51.2888634863207,487991.7556,155168.463,Rooftop geocoded by Geolytix,,"< 3,013 ft2 (280m2)","SRID=27700;POINT(487991.7556 155168.463)"
1010008221,The Co-operative Group,The Co-operative Food,Co-op Kirkcaldy - Lauder Road,Lauder Road,,Kirkcaldy,Sauchenbush,KY2 5BD,-3.16183106535955,56.1231898188171,327868.0525,692880.6039,Rooftop geocoded by Geolytix,,"< 3,013 ft2 (280m2)","SRID=27700;POINT(327868.0525 692880.6039)"
1010015065,Lidl,Lidl,Lidl Bramley Leeds,Town Street,,Leeds,Farsley,LS28 6HB,-1.66107921253665,53.8063098711934,422417.2949,434499.3486,Rooftop geocoded by Geolytix,20180222,"15,069 < 30,138 ft2 (1,400 < 2,800 m2)","SRID=27700;POINT(422417.2949 434499.3486)"
1010004197,Tesco,Tesco,Tesco Guildford Superstore,Ashenden Road,,Guildford,Park Barn,GU2 7UN,-0.604306386887742,51.2421115942579,497522,150140,Rooftop geocoded by Geolytix,,"30,138 ft2 > (2,800 m2)","SRID=27700;POINT(497522 150140)"
1010000673,Asda,Asda Superstore,Asda Farnborough Superstore,West Meade,,Farnborough,Central Farnborough,GU14 7LT,-0.757607957944368,51.2910334319393,486729.25,155388.33,Rooftop geocoded by Geolytix,,"30,138 ft2 > (2,800 m2)","SRID=27700;POINT(486729.25 155388.33)"
1010007529,Costco,Costco,Costco Farnborough,2 Templer Avenue,,Farnborough,Central Farnborough,GU14 6FE,-0.76799897878721,51.2840348390019,486017.76,154597.83,Rooftop geocoded by Geolytix,,"30,138 ft2 > (2,800 m2)","SRID=27700;POINT(486017.76 154597.83)"
1010002251,Morrisons,Morrisons,Morrisons Number One Consett,Front Street,,Consett,Number One,DH8 5RE,-1.83544380720294,54.8479549962168,410664.4946,550362.2284,Rooftop geocoded by Geolytix,,"30,138 ft2 > (2,800 m2)","SRID=27700;POINT(410664.4946 550362.2284)"
1010007794,The Co-operative Group,The Co-operative Food,Co-op Southwater,Southwater Village,Shopping Centre,Southwater,,RH13 9LA,-0.351735523789067,51.024855983169,515692.7614,126346.4094,Rooftop geocoded by Geolytix,,"3,013 < 15,069 ft2 (280 < 1,400 m2)","SRID=27700;POINT(515692.7614 126346.4094)"
1010000399,Aldi,Aldi,Aldi Reading,Unit 1A Vastern Court,,Reading,Central Reading,RG1 8AL,-0.973113791211303,51.460700957681,471438.13,174024.92,Rooftop geocoded by Geolytix,,"3,013 < 15,069 ft2 (280 < 1,400 m2)","SRID=27700;POINT(471438.13 174024.92)"
1010008080,The Co-operative Group,The Co-operative Food,Co-op Seahouses,41 Main St,,Seahouses,,NE68 7RF,-1.65443129277189,55.5807501710676,421884,631954,Rooftop geocoded by Geolytix,,"3,013 < 15,069 ft2 (280 < 1,400 m2)","SRID=27700;POINT(421884 631954)"
1010008074,The Co-operative Group,The Co-operative Food,Co-op Broadwater - Cricketers Parade,Cricketers Parade,,Worthing,Broadwater,BN14 9DB,-0.374733486477163,50.8290487292067,514559.4871,104537.5087,Rooftop geocoded by Geolytix,,"3,013 < 15,069 ft2 (280 < 1,400 m2)","SRID=27700;POINT(514559.4871 104537.5087)"
1010014523,The Co-operative Group,The Co-operative Food,Co-op Alyth - Market Square,3 Market Square,,Alyth,,PH11 8AA,-3.22995222936171,56.6223996792639,324626.7097,748514.8001,Rooftop geocoded by Geolytix,,"3,013 < 15,069 ft2 (280 < 1,400 m2)","SRID=27700;POINT(324626.7097 748514.8001)"
1010008780,The Co-operative Group,The Co-operative Food,Co-op Falconwood Park,21-23 Falconwood Park,,London,Falconwood,DA16 2PQ,0.0936297798585524,51.4572836455924,545554.0715,175223.5071,Rooftop geocoded by Geolytix,,"3,013 < 15,069 ft2 (280 < 1,400 m2)","SRID=27700;POINT(545554.0715 175223.5071)"
1010014298,Iceland,The Food Warehouse,Iceland Warrington Food Warehouse,Unit 6 F&G Junction 9 Retail Park,,Warrington,Bewsey,WA2 8TW,-2.59841862774247,53.409867948037,360317.6904,390506.3755,Rooftop geocoded by Geolytix,20160799,"3,013 < 15,069 ft2 (280 < 1,400 m2)","SRID=27700;POINT(360317.6904 390506.3755)"
1010007121,Lidl,Lidl,Lidl Lower Cam Dursley,18 Kingshill Road,,Dursley,Lower Cam,GL11 4EJ,-2.36148808146845,51.6881938995838,375107.61,198888.36,Rooftop geocoded by Geolytix,,"3,013 < 15,069 ft2 (280 < 1,400 m2)","SRID=27700;POINT(375107.61 198888.36)"
1010011773,Central England Co-operative,The Co-operative Food,Co-op Blaby Road Wigston,79 Blaby Road,,Leicester,South Wigston,LE18 4PB,-1.13260513432526,52.5796548607666,458873.17,298335.56,Rooftop geocoded by Geolytix,,"3,013 < 15,069 ft2 (280 < 1,400 m2)","SRID=27700;POINT(458873.17 298335.56)"
1010009127,The Co-operative Group,The Co-operative Food,Co-op Aldershot - North Lane,173 -175 North Lane,,Aldershot,North Town,GU12 4SY,-0.742708816893896,51.2511689032156,487844.0259,150972.8207,Rooftop geocoded by Geolytix,,"< 3,013 ft2 (280m2)","SRID=27700;POINT(487844.0259 150972.8207)"
1010006178,Tesco,Tesco Extra,Tesco Consett Genesis Extra,Genesis Way,,Consett,Number One,DH8 5XP,-1.84118082993459,54.8485828090164,410295.9507,550431.2424,Rooftop geocoded by Geolytix,,"30,138 ft2 > (2,800 m2)","SRID=27700;POINT(410295.9507 550431.2424)"
1010001973,Marks and Spencer,Marks and Spencer Simply Food,M&S Wycombe Marsh SF,Unit 4D Wycombe Retail Park,London Road,High Wycombe,"Wycombe Marsh, High Wycombe",HP11 1LP,-0.718937783296599,51.6187575032637,488788.34,191880.71,Rooftop geocoded by Geolytix,,"3,013 < 15,069 ft2 (280 < 1,400 m2)","SRID=27700;POINT(488788.34 191880.71)"
1010012769,Tesco,Tesco Express,Tesco Halifax School Lane Express,Free School Lane,,Halifax,Central Halifax,HX3 0AA,-1.85932980754047,53.7130795601855,409381.96,424082.57,Rooftop geocoded by Geolytix,,"< 3,013 ft2 (280m2)","SRID=27700;POINT(409381.96 424082.57)"
1010011524,Chelmsford Star Co-operative Society,The Co-operative Food,Co-op Ingatestone,3-5 Spreadeagle Place,,Ingatestone,,CM4 9EA,0.387035632741337,51.6716908439548,565157.94,199688.31,Rooftop geocoded by Geolytix,,"3,013 < 15,069 ft2 (280 < 1,400 m2)","SRID=27700;POINT(565157.94 199688.31)"
1010002862,Sainsburys,Sainsburys,Sainsburys Ellesmere Port,Kinsey Road,,Ellesmere Port,Ellesmere Port,CH65 9HN,-2.87897890283116,53.2631905324741,341467,374382,Rooftop geocoded by Geolytix,,"30,138 ft2 > (2,800 m2)","SRID=27700;POINT(341467 374382)"
1010013502,Marks and Spencer,Marks and Spencer Hospital,M&S Glasgow South Hospital,1345 Govan Road,,Glasgow,Govan,G51 4TF,-4.33883192453275,55.8618340804429,253721.3,665657.16,Rooftop geocoded by Geolytix,,"< 3,013 ft2 (280m2)","SRID=27700;POINT(253721.3 665657.16)"
1010014323,Iceland,Iceland,Iceland Dennistoun,447 Alexander Parade,,Glasgow,Dennistoun,G31 3AD,-4.21928582522455,55.8642918182457,261210.5114,665684.1891,Rooftop geocoded by Geolytix,,"3,013 < 15,069 ft2 (280 < 1,400 m2)","SRID=27700;POINT(261210.5114 665684.1891)"
1010005011,Tesco,Tesco Express,Tesco Woking Guildford Road Express,Guildford Road,,Woking,Hook Heath,GU22 7PX,-0.560177048613376,51.3159312027775,500441.33,158408.53,Rooftop geocoded by Geolytix,,"< 3,013 ft2 (280m2)","SRID=27700;POINT(500441.33 158408.53)"
1010001672,Marks and Spencer,Marks and Spencer BP,M&S Cheriton Folkestone BP,Cheriton High Street,Cheriton,Folkestone,Cheriton,CT19 4JE,1.13531005871469,51.0886122721297,619663.98,136820.1,Rooftop geocoded by Geolytix,,"< 3,013 ft2 (280m2)","SRID=27700;POINT(619663.98 136820.1)"
1010004216,Tesco,Tesco,Tesco Halifax Aachen Way Superstore,Haugh Shaw Road,,Halifax,Central Halifax,HX1 3TU,-1.87712672496878,53.714846647005,408207,424277,Rooftop geocoded by Geolytix,,"15,069 < 30,138 ft2 (1,400 < 2,800 m2)","SRID=27700;POINT(408207 424277)"
1010002224,Morrisons,Morrisons,Morrisons Cheriton Folkestone,148 Cheriton Road,,Folkestone,Cheriton,CT19 5JU,1.16100110341976,51.0852114859408,621479,136519,Rooftop geocoded by Geolytix,,"30,138 ft2 > (2,800 m2)","SRID=27700;POINT(621479 136519)"
1010013731,The Co-operative Group,The Co-operative Food,Co-op Main Street Bridgend,38 Main Street,,"Bridgend, Perth & Kinross",,PH2 7HB,-3.42386706414365,56.4006873154784,312217.03,724069.19,Rooftop geocoded by Geolytix,,"3,013 < 15,069 ft2 (280 < 1,400 m2)","SRID=27700;POINT(312217.03 724069.19)"
1010001929,Marks and Spencer,Marks and Spencer Simply Food,M&S Congleton SF,Unit A Congleton Retail Park,,Congleton,Congleton,CW12 1LJ,-2.21709349292916,53.1702561695765,385585.04,363704.56,Rooftop geocoded by Geolytix,,"3,013 < 15,069 ft2 (280 < 1,400 m2)","SRID=27700;POINT(385585.04 363704.56)"
1010001679,Marks and Spencer,Marks and Spencer BP,M&S Weymouth BP,316-318 Dorchester Road,,Weymouth,Broadwey,DT3 5AS,-2.46972613280491,50.6373495707001,366878.62,82067.26,Rooftop geocoded by Geolytix,,"< 3,013 ft2 (280m2)","SRID=27700;POINT(366878.62 82067.26)"
1010001612,Marks and Spencer,Marks and Spencer,M&S Kew,Kew Retail Park,Mortlake Road,London,Kew,TW9 4AD,-0.278574126791032,51.4776189445432,519643.52,176811.42,Rooftop geocoded by Geolytix,,"3,013 < 15,069 ft2 (280 < 1,400 m2)","SRID=27700;POINT(519643.52 176811.42)"
1010003918,Sainsburys,Sainsburys Local,Sainsburys Teesdale Local,Pearson House,Pearson Way,Thornaby On Tess,Thornaby,TS17 6PS,-1.30438590891713,54.5603877004311,445081.45,518572.59,Rooftop geocoded by Geolytix,,"< 3,013 ft2 (280m2)","SRID=27700;POINT(445081.45 518572.59)"
1010000930,Asda,Asda Supercentre,Asda Watford Supercentre,Odhams Industrial Estate,St Albans Road,Watford,North Watford,WD24 7RT,-0.389858809166786,51.6796303052417,511421,199100.93,Rooftop geocoded by Geolytix,,"30,138 ft2 > (2,800 m2)","SRID=27700;POINT(511421 199100.93)"
1010012513,Midcounties Co-operative,The Co-operative Food,Co-op Franche Road Food,Franche Road,,Kidderminster,Franche,DY11 5BJ,-2.2685847830678,52.3983474073115,381822.09,277848.62,Rooftop geocoded by Geolytix,,"3,013 < 15,069 ft2 (280 < 1,400 m2)","SRID=27700;POINT(381822.09 277848.62)"
1010001859,Marks and Spencer,Marks and Spencer Outlet,M&S Banbridge Outlet,Unit 42 Bridgewater Outlet Centre,,Banbridge,,BT32 4LF,-6.27363453097332,54.3316997876073,122268.96,501329.03,Rooftop geocoded by Geolytix,,"3,013 < 15,069 ft2 (280 < 1,400 m2)","SRID=27700;POINT(122268.96 501329.03)"
1010007465,Lidl,Lidl,Lidl Central Dewsbury Dewsbury,Commercial Road,,Dewsbury,Central Dewsbury,WF13 2BD,-1.6319984474468,53.6944797357102,424396.81,422066.83,Rooftop geocoded by Geolytix,,"15,069 < 30,138 ft2 (1,400 < 2,800 m2)","SRID=27700;POINT(424396.81 422066.83)"
1010004115,Tesco,Tesco,Tesco Folkestone Superstore,Cheriton High Street,,Folkestone,Cheriton,CT19 4QJ,1.12999192918644,51.0904360440315,619283,137007,Rooftop geocoded by Geolytix,,"30,138 ft2 > (2,800 m2)","SRID=27700;POINT(619283 137007)"
1010000593,Asda,Asda Superstore,Asda Portadown Superstore,Bridge Street,,Portadown,Portadown East,BT63 5AQ,-6.43841306748731,54.4275718638003,112235.96,512649.02,Rooftop geocoded by Geolytix,,"30,138 ft2 > (2,800 m2)","SRID=27700;POINT(112235.96 512649.02)"
1010002267,Morrisons,Morrisons,Morrisons Broadwey Weymouth,Dorchester Road,,Weymouth,Broadwey,DT3 5AX,-2.46404480288011,50.6339257430676,367278,81684,Rooftop geocoded by Geolytix,,"30,138 ft2 > (2,800 m2)","SRID=27700;POINT(367278 81684)"
1010005936,Tesco,Tesco Express Esso,Tesco Accrington Abbey Street Esso Express,105 Abbey Street,,Accrington,Hillock Vale,BB5 1EW,-2.36039108027136,53.7510587616708,376332.7,428359.3,Rooftop geocoded by Geolytix,,"< 3,013 ft2 (280m2)","SRID=27700;POINT(376332.7 428359.3)"
1010002025,Marks and Spencer,Marks and Spencer Simply Food,M&S Mill Hill SF,3-7 The Broadway,Mill Hill,London,Mill Hill,NW7 3LN,-0.249255337073568,51.6142167146484,521315.92,192050.15,Rooftop geocoded by Geolytix,,"3,013 < 15,069 ft2 (280 < 1,400 m2)","SRID=27700;POINT(521315.92 192050.15)"
1010010909,Iceland,Iceland,Iceland Mill Hill,43 The Broadway,,London,Mill Hill,NW7 3DA,-0.24758677517968,51.6148170492541,521429.84,192119.68,Rooftop geocoded by Geolytix,,"3,013 < 15,069 ft2 (280 < 1,400 m2)","SRID=27700;POINT(521429.84 192119.68)"
1010007865,The Co-operative Group,The Co-operative Food,Co-op Poplar,57-73 Chrisp Street,,London,Poplar,E14 6LP,-0.0145418358242666,51.5132265910483,537870.6879,181235.1585,Rooftop geocoded by Geolytix,,"3,013 < 15,069 ft2 (280 < 1,400 m2)","SRID=27700;POINT(537870.6879 181235.1585)"
1010010800,Iceland,Iceland,Iceland Poplar,10 Vesey Path,,London,Poplar,E14 6BT,-0.0141583680193301,51.5117469350743,537901.76,181071.34,Rooftop geocoded by Geolytix,,"3,013 < 15,069 ft2 (280 < 1,400 m2)","SRID=27700;POINT(537901.76 181071.34)"
1010003926,Sainsburys,Sainsburys Local,Sainsburys Netherfields Local,5 Vaughan Centre,Fosdyke Green,Middlesbrough,Ormesby,TS3 0RY,-1.17836865122206,54.5544880964929,453238.16,518004.02,Rooftop geocoded by Geolytix,,"< 3,013 ft2 (280m2)","SRID=27700;POINT(453238.16 518004.02)"
1010001889,Marks and Spencer,Marks and Spencer Outlet,M&S Dalton Park Murton Outlet,Units 58-61 Dalton Park,Murton,"Murton, County Durham",,SR7 9HZ,-1.37187700543519,54.8150304357754,440463.65,546866.73,Rooftop geocoded by Geolytix,,"3,013 < 15,069 ft2 (280 < 1,400 m2)","SRID=27700;POINT(440463.65 546866.73)"
1010001947,Marks and Spencer,Marks and Spencer Simply Food,M&S Straiton SF,1 Straiton Park Way,The Peel Centre,Loanhead,Straiton,EH20 9QY,-3.16324776294267,55.8864706154074,327336.37,666537.11,Rooftop geocoded by Geolytix,,"3,013 < 15,069 ft2 (280 < 1,400 m2)","SRID=27700;POINT(327336.37 666537.11)"
1010013319,Heron,Heron,Heron Broughton Manchester,22 Mocha Parade,Lower Broughton Road,Manchester,Broughton,M7 1QE,-2.26147119911217,53.4916869262041,382749.51,399473.96,Rooftop geocoded by Geolytix,,"3,013 < 15,069 ft2 (280 < 1,400 m2)","SRID=27700;POINT(382749.51 399473.96)"
1010015147,Marks and Spencer,Marks and Spencer Foodhall,M&S Chelmsfood Westway Foodhall,1 Clock Tower Retail Park,,Chelmsford,Central Chelmsford,CM1 3FJ,0.451625128502499,51.7239132850503,569428.5352,205643.2751,Rooftop geocoded by Geolytix,20179999,"3,013 < 15,069 ft2 (280 < 1,400 m2)","SRID=27700;POINT(569428.5352 205643.2751)"
1010000843,Asda,Asda Superstore,Asda Dewsbury Superstore,Mill Street West,,Dewsbury,Central Dewsbury,WF12 9AE,-1.63334716457143,53.6883820689314,424311.25,421387.96,Rooftop geocoded by Geolytix,,"30,138 ft2 > (2,800 m2)","SRID=27700;POINT(424311.25 421387.96)"
1010010414,Tesco,Tesco Extra,Tesco Accrington Extra,2 Eagle Street,,Accrington,Hillock Vale,BB5 1LN,-2.36933714255,53.7523325365573,375743.52,428504.05,Rooftop geocoded by Geolytix,,"30,138 ft2 > (2,800 m2)","SRID=27700;POINT(375743.52 428504.05)"
1010002596,Morrisons,Morrisons,Morrisons Ormesby Middlesbrough,Berwick Hills Centre,Ormesby Road,Middlesbrough,Ormesby,TS3 7PB,-1.2038515689792,54.5598030474302,451583.3548,518576.4674,Rooftop geocoded by Geolytix,,"30,138 ft2 > (2,800 m2)","SRID=27700;POINT(451583.3548 518576.4674)"
1010000793,Asda,Asda Superstore,Asda Barnsley Superstore,Old Mill Lane,,Barnsley,Wilthorpe,S71 1LN,-1.47538581386543,53.5608431576136,434847.49,407263.91,Rooftop geocoded by Geolytix,,"30,138 ft2 > (2,800 m2)","SRID=27700;POINT(434847.49 407263.91)"
1010012957,Farmfoods,Farmfoods,Farmfoods Fincham Liverpool,128 Liverpool Road,,Liverpool,Fincham,L36 3RG,-2.86149573490728,53.4213263100537,342845.43,391960.07,Rooftop geocoded by Geolytix,,"3,013 < 15,069 ft2 (280 < 1,400 m2)","SRID=27700;POINT(342845.43 391960.07)"
1010007324,Lidl,Lidl,Lidl Shaw Newbury,121a London Road,,Newbury,Shaw,RG14 2BX,-1.31585047617913,51.4056230097596,447684.45,167621.48,Rooftop geocoded by Geolytix,,"3,013 < 15,069 ft2 (280 < 1,400 m2)","SRID=27700;POINT(447684.45 167621.48)"
1010013964,Aldi,Aldi,Aldi Jennyfield Harrogate,Old Beck Road,,Harrogate,Jennyfield,HG1 3HT,-1.55405103235355,54.0087486469077,429324.05,457061.83,Rooftop geocoded by Geolytix,20160721,"3,013 < 15,069 ft2 (280 < 1,400 m2)","SRID=27700;POINT(429324.05 457061.83)"
1010013289,Heron,Heron,Heron Pallion Sunderland,38 St Lukes Terrace,,Sunderland,Pallion,SR4 6NQ,-1.41460158079333,54.9080653797036,437631.57,557195.7,Rooftop geocoded by Geolytix,,"3,013 < 15,069 ft2 (280 < 1,400 m2)","SRID=27700;POINT(437631.57 557195.7)"
1010007000,Lidl,Lidl,Lidl Braintree Town Centre Braintree,Rayne Road,,Braintree,Braintree Town Centre,CM7 2QS,0.536696497279663,51.8789732959549,574703.23,223086.32,Rooftop geocoded by Geolytix,,"3,013 < 15,069 ft2 (280 < 1,400 m2)","SRID=27700;POINT(574703.23 223086.32)"
1010010786,Iceland,Iceland,Iceland Stevenage,4-6 The Forum,,Stevenage,Central Stevenage,SG1 1EH,-0.202119915678262,51.9043417399992,523783.96,224393.83,Rooftop geocoded by Geolytix,,"3,013 < 15,069 ft2 (280 < 1,400 m2)","SRID=27700;POINT(523783.96 224393.83)"
1010003786,Sainsburys,Sainsburys Local,Sainsburys Barnsley Redbrook Road Local,Redbrook Road,,Barnsley,Wilthorpe,S75 2RE,-1.50815518459605,53.5606079471628,432677.07,407222.26,Rooftop geocoded by Geolytix,,"< 3,013 ft2 (280m2)","SRID=27700;POINT(432677.07 407222.26)"
1010005569,Tesco,Tesco Express,Tesco Barnsley Huddersfield Road Express,Huddersfield Road,,Barnsley,Wilthorpe,S75 1HA,-1.49851170044372,53.5641529558067,433313.07,407621.11,Rooftop geocoded by Geolytix,,"< 3,013 ft2 (280m2)","SRID=27700;POINT(433313.07 407621.11)"
1010012896,Farmfoods,Farmfoods,Farmfoods Allenton Derby,Ascot Drive,,Derby,Allenton,DE24 8GW,-1.45309610192165,52.8957143194857,436889.43,333280.82,Rooftop geocoded by Geolytix,,"3,013 < 15,069 ft2 (280 < 1,400 m2)","SRID=27700;POINT(436889.43 333280.82)"
1010009409,The Co-operative Group,The Co-operative Food,Co-op Abbey Wood - Eynsham Drive,182 Eynsham Drive,Abbey Wood,London,Abbey Wood,SE2 9PS,0.109353594716799,51.4933013840305,546531,179260,Rooftop geocoded by Geolytix,,"3,013 < 15,069 ft2 (280 < 1,400 m2)","SRID=27700;POINT(546531 179260)"
1010006187,Tesco,Tesco Extra,Tesco Musselburgh Extra,Olive Bank Road,,Musselburgh,Musselborough,EH21 7BL,-3.05538165956506,55.9387661800535,334172,672249,Rooftop geocoded by Geolytix,,"30,138 ft2 > (2,800 m2)","SRID=27700;POINT(334172 672249)"
1010001913,Marks and Spencer,Marks and Spencer Simply Food,M&S Upper Rd Belfast SF,248-266 Upper Newtonards Road,,Belfast,Sydenham,BT4 3EU,-5.87331795250555,54.5961032646858,149900,529223,Rooftop geocoded by Geolytix,,"3,013 < 15,069 ft2 (280 < 1,400 m2)","SRID=27700;POINT(149900 529223)"
1010005700,Tesco,Tesco Express,Tesco Ashdown Road Express,8-12 Ashdown Road,Chandlers Ford,Chandlers Ford,Fryern Hill,SO53 5RD,-1.38727742047618,50.9997456581823,443092.25,122440.11,Rooftop geocoded by Geolytix,,"< 3,013 ft2 (280m2)","SRID=27700;POINT(443092.25 122440.11)"
1010001882,Marks and Spencer,Marks and Spencer Outlet,M&S Byker Outlet,Unit 7A Newcastle Shopping Park,Fossway,Newcastle Upon Tyne,Byker,NE6 2UJ,-1.57140134552036,54.9802718645784,427529.06,565158.1,Rooftop geocoded by Geolytix,,"3,013 < 15,069 ft2 (280 < 1,400 m2)","SRID=27700;POINT(427529.06 565158.1)"
1010014383,Heron,Heron,Heron Winstanley Wigan,Unit 73 The Winstanley Shopping Centre,,Wigan,Winstanley,WN3 6JA,-2.66976994962182,53.5214827488663,355691.3722,402965.8642,Rooftop geocoded by Geolytix,,"3,013 < 15,069 ft2 (280 < 1,400 m2)","SRID=27700;POINT(355691.3722 402965.8642)"
1010010054,The Co-operative Group,The Co-operative Food,Co-op Fewster Square,Leam Lane Estate,Fewster Square,Gateshead,Leam Lane,NE10 8XQ,-1.54555431119525,54.9411728517282,429211.54,560817.58,Rooftop geocoded by Geolytix,,"< 3,013 ft2 (280m2)","SRID=27700;POINT(429211.54 560817.58)"
1010001112,Asda,Asda Supermarket,Asda Twickenham Supermarket,Ivy Bridge Retail Park,Twickenham,London,Isleworth,TW7 7DY,-0.331988378079818,51.4592909451104,515980.75,174687.4,Rooftop geocoded by Geolytix,,"3,013 < 15,069 ft2 (280 < 1,400 m2)","SRID=27700;POINT(515980.75 174687.4)"
1010007973,The Co-operative Group,The Co-operative Food,Co-op Ushaw Moor,Broom Lane,Ushaw Moor,Ushaw Moor,,DH7 7LQ,-1.64446773724841,54.7775282907949,422967.1412,542570.7366,Rooftop geocoded by Geolytix,,"< 3,013 ft2 (280m2)","SRID=27700;POINT(422967.1412 542570.7366)"
1010011976,The Southern Co-operative,The Co-operative Food,Co-op Hursley Road Southampton,Hursley Road,,Chandlers Ford,Fryern Hill,SO53 2FU,-1.38543867321453,50.9845348770113,443235.37,120749.66,Rooftop geocoded by Geolytix,,"< 3,013 ft2 (280m2)","SRID=27700;POINT(443235.37 120749.66)"
1010007020,Lidl,Lidl,Lidl Central Gravesend Gravesend,Imperial Retail Park,Thames Way,Gravesend,Central Gravesend,DA11 0DQ,0.359530279145014,51.4445071916183,564071.41,174364.49,Rooftop geocoded by Geolytix,,"3,013 < 15,069 ft2 (280 < 1,400 m2)","SRID=27700;POINT(564071.41 174364.49)"
1010011008,Iceland,Iceland,Iceland Newtownards Iceland,Unit 8 Ards Shopping Centre N. Ireland,,Newtownards,Newtonards,BT23 4EU,-5.71006208973953,54.5929829438959,160422.25,528306.59,Rooftop geocoded by Geolytix,,"3,013 < 15,069 ft2 (280 < 1,400 m2)","SRID=27700;POINT(160422.25 528306.59)"
1010001716,Marks and Spencer,Marks and Spencer BP,M&S Ewell BP,London Road,,London,Stoneleigh,KT17 2PT,-0.244854152700669,51.3542774691639,522313.58,163151.01,Rooftop geocoded by Geolytix,,"< 3,013 ft2 (280m2)","SRID=27700;POINT(522313.58 163151.01)"
1010001417,Marks and Spencer,Marks and Spencer,M&S Kinnaird Edinburgh,Unit 6 Fort Kinnaird Retail Park,,Edinburgh,Duddingston,EH15 3RD,-3.10098039009221,55.9355415127884,331318,671934.54,Rooftop geocoded by Geolytix,,"3,013 < 15,069 ft2 (280 < 1,400 m2)","SRID=27700;POINT(331318 671934.54)"
1010011218,Iceland,Iceland,Iceland Eston,Whale Shopping Centre,,Middlesbrough,Eston,TS6 8BL,-1.1368047770675,54.5653953367733,455911.41,519249.86,Rooftop geocoded by Geolytix,,"3,013 < 15,069 ft2 (280 < 1,400 m2)","SRID=27700;POINT(455911.41 519249.86)"
